complaint_id,complaint_title,complaint_description,source,sector_id,category,sub_category,priority,urgency_score,created_at,resolved_at,status,resolution_time_days,assigned_department,assigned_officer,citizen_satisfaction,latitude,longitude,resolution_notes
GRV-2025-00001,Sewer Line Burst issue in Sector 26,The sewage smell from the drain near Sector 26 Phase A is affecting the entire neighborhood.,Web Portal,SEC-26,Sewerage,Sewer Line Burst,P3-Medium,0.41,2025-09-18T13:36:26,,In Progress,,MCC Public Health Department,Amarjit Kaur,,30.714985,76.793457,
GRV-2025-00002,Roof Jutting Out issue in Sector 24,Tree nursery has been illegally set up on the road margin near Sector 24 Phase A.,Mobile App,SEC-24,Encroachment,Roof Jutting Out,P2-High,0.8,2025-06-06T06:22:50,2025-06-07T12:22:50,Resolved,1,MCC Town Planning Department,Gurpreet Sandhu,4,30.750261,76.80172,Notice issued to occupant
GRV-2025-00003,Waterlogging on main road in Sector 14,The footpath/road at Sector 14 Sector 30 Chowk has been damaged. Senior citizens are finding it difficult to walk.,Web Portal,SEC-14,Roads,Waterlogging on Road,P4-Low,0.21,2026-02-18T07:18:12,2026-02-27T11:18:12,Resolved,9,MCC Engineering Department,Er. Harpreet Singh,3,30.724806,76.771858,Repaired using hot-mix patching
GRV-2025-00004,New Connection Delay issue in Sector 33,There is no water supply in Sector 33 since 12 days. Residents are facing severe hardship.,Mobile App,SEC-33,Water Supply,New Connection Delay,P3-Medium,0.33,2025-06-19T18:47:28,2025-07-05T00:47:28,Resolved,15,MCC Public Health Department,Raju Kumar,3,30.739802,76.813945,Pipeline repaired
GRV-2025-00005,Road signage missing at junction in Sector 21,"After the last rain, the Road Signage Missing near petrol pump in Sector 21 has worsened. Multiple vehicles have been damaged.",Web Portal,SEC-21,Roads,Road Signage Missing,P3-Medium,0.38,2025-09-16T19:10:44,2025-10-04T01:10:44,Resolved,17,MCC Engineering Department,Er. Harpreet Singh,1,30.769603,76.768205,Footpath relaid
GRV-2025-00006,Road surface cracked and uneven in Sector 21,The road in front of main market in Sector 21 has a Cracked Road Surface. Vehicles are getting damaged. Immediate action required.,Voice Call,SEC-21,Roads,Cracked Road Surface,P3-Medium,0.32,2025-11-24T17:23:24,2025-12-15T18:23:24,Resolved,21,MCC Engineering Department,Er. Harpreet Singh,3,30.735994,76.769677,Manhole cover replaced
GRV-2025-00007,Underground Cable Fault issue in Sector 48,More than half the streetlights in Sector 48 are non-functional. The entire area feels unsafe after sunset.,Mobile App,SEC-48,Streetlights,Underground Cable Fault,P3-Medium,0.48,2025-09-08T18:58:35,,Rejected,,CPDL / Chandigarh Electricity Department,Er. Gurmeet Pal,,30.709421,76.801997,
GRV-2025-00008,Sewage Smell issue in Sector 17,"The drain near rose garden, Sector 17 has not been cleaned for months. It is completely blocked.",Web Portal,SEC-17,Sewerage,Sewage Smell,P3-Medium,0.55,2025-12-11T16:42:22,2025-12-17T01:42:22,Resolved,5,MCC Public Health Department,Amarjit Kaur,3,30.723997,76.7526,Sewage overflow cleaned
GRV-2025-00009,"Broken footpath, risk to pedestrians in Sector 52",Road divider near Sector 52 sukhna lake road is broken and poses a danger to motorists. Please take immediate action as the situation is worsening.,Mobile App,SEC-52,Roads,Broken Footpath,P3-Medium,0.44,2025-08-18T10:39:56,2025-08-23T12:39:56,Resolved,5,MCC Engineering Department,Jagtar Singh,3,30.757355,76.778293,Pothole filled with bitumen
GRV-2025-00010,Short Circuit Risk issue in Sector 49,More than half the streetlights in Sector 49 are non-functional. The entire area feels unsafe after sunset.,Mobile App,SEC-49,Streetlights,Short Circuit Risk,P4-Low,0.19,2025-05-09T10:27:32,2025-05-19T12:27:32,Resolved,10,CPDL / Chandigarh Electricity Department,SDO Pankaj,3,30.713173,76.765813,New LED light installed
GRV-2025-00011,Congestion Near School issue in Sector 23,Wrong-side driving is rampant near Sector 23 market. No traffic police present.,Mobile App,SEC-23,Traffic,Congestion Near School,P1-Critical,0.93,2025-10-14T10:10:42,2025-10-16T20:10:42,Resolved,2,Traffic Police Chandigarh,ASI Manjit,4,30.70227,76.743637,Signal repaired
GRV-2025-00012,No Power Since Morning issue in Sector 20,The electricity bill for Sector 20 house 526 is 3x higher than usual this month with no change in usage.,Voice Call,SEC-20,Electricity,No Power Since Morning,P4-Low,0.07,2025-12-18T18:19:29,,Pending,,CPDL / Chandigarh Electricity Department,Rajesh Pal,,30.705838,76.744793,
GRV-2025-00013,Meter Reading Error issue in Sector 26,The water supply pipe near Sector 26 rose garden has been leaking for 7 days. A large amount of water is being wasted.,Voice Call,SEC-26,Water Supply,Meter Reading Error,P3-Medium,0.33,2025-06-19T09:20:15,,Rejected,,MCC Public Health Department,Sandeep Verma,,30.737318,76.761398,
GRV-2025-00014,Sewer Line Burst issue in Sector 15,"The sewer is overflowing near house 397, Sector 15. Dirty water is spreading on the road.",Email,SEC-15,Sewerage,Sewer Line Burst,P1-Critical,0.94,2025-06-08T11:31:32,2025-06-11T19:31:32,Resolved,3,MCC Public Health Department,Gurmail Singh,3,30.707204,76.771459,Manhole cover placed
GRV-2025-00015,Setback Violated issue in Sector 19,Construction work at Sector 19 house 461 started without any visible permit. Please take immediate action as the situation is worsening.,Email,SEC-19,Building Violation,Setback Violated,P4-Low,0.0,2025-04-11T10:56:16,2025-05-11T17:56:16,Resolved,30,MCC Town Planning Department,Manpreet Singh,1,30.704093,76.784945,"Owner warned, violation removed"
GRV-2025-00016,Waterlogging on main road in Sector 37,The road in front of rose garden in Sector 37 has a Waterlogging on Road. Vehicles are getting damaged. Immediate action required.,Web Portal,SEC-37,Roads,Waterlogging on Road,P4-Low,0.12,2025-12-02T16:35:23,2025-12-18T20:35:23,Resolved,16,MCC Engineering Department,Jagtar Singh,4,30.740006,76.743624,Manhole cover replaced
GRV-2025-00017,Illegal Stall issue in Sector 44,A private party has started construction on what appears to be a public park in Sector 44.,Web Portal,SEC-44,Encroachment,Illegal Stall,P4-Low,0.3,2025-12-09T15:37:21,,Rejected,,MCC Town Planning Department,Rajdeep Kaur,,30.740585,76.780777,
GRV-2025-00018,Sewage Smell issue in Sector 44,"The drain near bank branch, Sector 44 has not been cleaned for months. It is completely blocked.",Email,SEC-44,Sewerage,Sewage Smell,P3-Medium,0.45,2025-07-07T13:46:03,2025-07-28T21:46:03,Resolved,21,MCC Public Health Department,Amarjit Kaur,4,30.757695,76.801968,Sewer line repaired
GRV-2025-00019,Manhole Cover Missing issue in Sector 15,"The sewer is overflowing near house 686, Sector 15. Dirty water is spreading on the road.",Web Portal,SEC-15,Sewerage,Manhole Cover Missing,P4-Low,0.21,2025-08-06T21:55:54,2025-08-17T09:55:54,Resolved,10,MCC Public Health Department,Paramjit Kaur,4,30.744871,76.81985,Sewer line repaired
GRV-2025-00020,Waste Near Park issue in Sector 36,"A large garbage dump has appeared near bank branch, Sector 36. Dogs and stray animals are digging through it.",Web Portal,SEC-36,Garbage/Sanitation,Waste Near Park,P4-Low,0.29,2025-05-28T15:14:19,2025-06-23T03:14:19,Resolved,25,MCC Public Health Department,Sandeep Verma,4,30.73912,76.778384,Dustbin replaced
GRV-2025-00021,Industrial Machine Noise issue in Sector 52,Firecrackers are being burst in Sector 52 every night despite the ban. Action needed.,Web Portal,SEC-52,Noise Pollution,Industrial Machine Noise,P4-Low,0.01,2026-02-25T08:22:59,2026-03-20T18:00:00,Resolved,35,Chandigarh Police,ASI Gurpreet,4,30.717119,76.806236,Complaint registered
GRV-2025-00022,No Light in Lane issue in Sector 37,The streetlight near house 211 in Sector 37 is flickering and creating nuisance at night.,WhatsApp,SEC-37,Streetlights,No Light in Lane,P4-Low,0.03,2025-07-05T21:06:43,,Pending,,CPDL / Chandigarh Electricity Department,Er. Hardeep Kaur,,30.761661,76.740415,
GRV-2025-00023,Stinky Garbage issue in Sector 15,No sanitation worker has been assigned to our lane in Sector 15 for 9 days despite repeated calls to the helpline.,Mobile App,SEC-15,Garbage/Sanitation,Stinky Garbage,P3-Medium,0.36,2025-11-14T07:58:58,2025-11-22T14:58:58,Resolved,8,MCC Public Health Department,Sandeep Verma,5,30.702907,76.806896,Dustbin replaced
GRV-2025-00024,Wall Extension on Road issue in Sector 16,A shop owner near Sector 16 market has encroached upon the public footpath. Pedestrians have no space to walk.,Web Portal,SEC-16,Encroachment,Wall Extension on Road,P2-High,0.68,2026-02-05T10:54:32,2026-02-09T15:54:32,Resolved,4,MCC Town Planning Department,Rajdeep Kaur,4,30.726455,76.79849,Notice issued to occupant
GRV-2025-00025,Speed breaker missing near school in Sector 44,"There is a large Speed Breaker Missing near house no. 854, Sector 44. Please take immediate action as the situation is worsening. Please repair urgently.",Web Portal,SEC-44,Roads,Speed Breaker Missing,P3-Medium,0.38,2025-08-04T09:11:08,2025-08-22T15:11:08,Resolved,18,MCC Engineering Department,Er. Sukhwinder Kaur,1,30.730686,76.775739,Road resurfacing completed
GRV-2025-00026,Grass Not Cut issue in Sector 23,There is no drinking water facility in the Sector 23 park. It should be provided urgently.,WhatsApp,SEC-23,Parks/Trees,Grass Not Cut,P2-High,0.63,2025-08-03T22:59:57,,Pending,,MCC Horticulture Department,Jasveer Singh,,30.771024,76.801587,
GRV-2025-00027,Overflowing Dustbin issue in Sector 40,"A large garbage dump has appeared near sector park, Sector 40. Dogs and stray animals are digging through it.",Mobile App,SEC-40,Garbage/Sanitation,Overflowing Dustbin,P2-High,0.78,2025-11-23T12:48:15,,Pending,,MCC Public Health Department,Raju Kumar,,30.754427,76.787665,
GRV-2025-00028,Overflowing Dustbin issue in Sector 36,The area near Sector 36 Phase A park has become an illegal garbage dump point. Multiple neighbors have also complained.,Mobile App,SEC-36,Garbage/Sanitation,Overflowing Dustbin,P4-Low,0.1,2025-07-31T09:43:13,,In Progress,,MCC Public Health Department,Sandeep Verma,,30.757353,76.779106,
GRV-2025-00029,Stinky Garbage issue in Sector 30,Dead dog near Sector 30 Sector 29 Chowk has not been removed for 10 days. Spreading disease risk.,Mobile App,SEC-30,Garbage/Sanitation,Stinky Garbage,P3-Medium,0.36,2025-03-02T12:37:04,2025-03-06T19:37:04,Resolved,4,MCC Public Health Department,Gurmail Singh,4,30.743293,76.74482,Regular sweeping resumed
GRV-2025-00030,Choked Drain issue in Sector 33,"The drain near petrol pump, Sector 33 has not been cleaned for months. It is completely blocked.",Web Portal,SEC-33,Sewerage,Choked Drain,P4-Low,0.11,2025-10-05T10:41:55,2025-11-03T12:41:55,Resolved,29,MCC Public Health Department,Gurmail Singh,5,30.731445,76.750188,Sewer line repaired
GRV-2025-00031,Water Pipe Leakage issue in Manimajra,There is no water supply in Manimajra since 9 days. Residents are facing severe hardship.,Web Portal,MNJ,Water Supply,Water Pipe Leakage,P2-High,0.64,2025-06-01T09:02:51,2025-06-07T16:02:51,Resolved,6,MCC Public Health Department,Gurmail Singh,4,30.770701,76.741252,Pressure restored after maintenance
GRV-2025-00032,Sewer Line Burst issue in Sector 9,"The drain outside house 134, Sector 9 has been blocked for 9 days causing stagnant water.",Web Portal,SEC-09,Sewerage,Sewer Line Burst,P4-Low,0.16,2025-11-11T07:08:32,2025-12-06T11:08:32,Resolved,25,MCC Public Health Department,Gurmail Singh,4,30.746198,76.801803,Pipe replaced
GRV-2025-00033,Bin Not Emptied issue in Sector 19,People have started dumping garbage on the road near Sector 19 Phase C as there is no proper bin.,Mobile App,SEC-19,Garbage/Sanitation,Bin Not Emptied,P3-Medium,0.42,2026-03-06T18:50:33,,Rejected,,MCC Public Health Department,Raju Kumar,,30.725499,76.773306,
GRV-2025-00034,"Broken footpath, risk to pedestrians in Sector 22","Since past 10 days, a Broken Footpath has been causing accidents in Sector 22 near government school. Two-wheelers are at risk.",WhatsApp,SEC-22,Roads,Broken Footpath,P3-Medium,0.44,2026-03-03T22:08:24,,Rejected,,MCC Engineering Department,Er. Parveen Kumar,,30.719429,76.756267,
GRV-2025-00035,Overflowing Dustbin issue in Sector 30,The community dustbin near government school in Sector 30 is overflowing and stinking. Area residents are suffering.,WhatsApp,SEC-30,Garbage/Sanitation,Overflowing Dustbin,P2-High,0.75,2025-09-02T12:30:13,2025-09-09T18:30:13,Resolved,7,MCC Public Health Department,Raju Kumar,5,30.701227,76.814973,Regular sweeping resumed
GRV-2025-00036,Severe road damage near market in Sector 46,Road Damage has developed near the main market of Sector 46. It is creating problems for daily commuters and shopkeepers.,WhatsApp,SEC-46,Roads,Road Damage,P4-Low,0.14,2025-09-25T15:16:23,,Rejected,,MCC Engineering Department,Er. Parveen Kumar,,30.741025,76.779782,
GRV-2025-00037,Frequent Tripping issue in Sector 53,"Our electricity meter was found tampered and we received an inflated bill. House 308, Sector 53.",Web Portal,SEC-53,Electricity,Frequent Tripping,P4-Low,0.08,2026-02-16T19:18:09,,Rejected,,CPDL / Chandigarh Electricity Department,SDO Pankaj,,30.715695,76.758401,
GRV-2025-00038,Flyover structure showing damage in Manimajra,The Flyover Damage near Sector 17 chowk has been unattended for 12 days. Please take immediate action.,Voice Call,MNJ,Roads,Flyover Damage,P2-High,0.59,2025-12-02T11:08:46,,Pending,,MCC Engineering Department,Er. Sukhwinder Kaur,,30.743724,76.754724,
GRV-2025-00039,Stinky Garbage issue in Sector 41,The area near Sector 41 Phase A park has become an illegal garbage dump point. Multiple neighbors have also complained.,Walk-in,SEC-41,Garbage/Sanitation,Stinky Garbage,P2-High,0.57,2025-04-24T12:32:29,,Escalated,,MCC Public Health Department,Gurmail Singh,,30.729856,76.789427,
GRV-2025-00040,Water Logging issue in Sector 34,There is no water supply in Sector 34 since 10 days. Residents are facing severe hardship.,Voice Call,SEC-34,Water Supply,Water Logging,P4-Low,0.15,2025-09-29T19:51:58,2025-10-17T21:51:58,Resolved,18,MCC Public Health Department,Sandeep Verma,4,30.719278,76.789582,Water supply restored after valve repair
GRV-2025-00041,Building on Green Belt issue in Sector 55,"The roof of house 914 in Sector 55 is jutting out on the public road, posing danger.",Voice Call,SEC-55,Encroachment,Building on Green Belt,P2-High,0.72,2026-01-20T07:05:25,2026-01-24T14:05:25,Resolved,4,MCC Town Planning Department,Rajdeep Kaur,3,30.75094,76.796228,Action taken against violator
GRV-2025-00042,Choked Drain issue in Sector 35,Effluent from the nearby drain is flowing into the park in Sector 35. Park is unusable now.,WhatsApp,SEC-35,Sewerage,Choked Drain,P3-Medium,0.53,2025-10-06T14:57:34,2025-10-28T01:57:34,Resolved,21,MCC Public Health Department,Sandeep Verma,3,30.768034,76.741253,Drain desilted and cleared
GRV-2025-00043,Water Pipe Leakage issue in Sector 38,Water meter at house 178 in Sector 38 is showing incorrect reading. Bill is very high.,Mobile App,SEC-38,Water Supply,Water Pipe Leakage,P2-High,0.74,2025-05-07T08:32:47,,Rejected,,MCC Public Health Department,Paramjit Kaur,,30.777946,76.744296,
GRV-2025-00044,Manhole Cover Missing issue in Sector 18,Sewage water is flowing onto the main road of Sector 18 due to overflowing drains. Vehicles are splashing it.,Mobile App,SEC-18,Sewerage,Manhole Cover Missing,P3-Medium,0.42,2025-07-26T18:27:11,2025-08-17T05:27:11,Resolved,21,MCC Public Health Department,Gurmail Singh,2,30.749489,76.803844,Drainage unblocked using jet machine
GRV-2025-00045,Wrong Side Driving issue in Sector 11,The parking outside petrol pump in Sector 11 is chaotic. Vehicles are blocking traffic.,Mobile App,SEC-11,Traffic,Wrong Side Driving,P4-Low,0.28,2025-08-18T14:06:08,2025-08-30T17:06:08,Resolved,12,Traffic Police Chandigarh,ASI Manjit,3,30.744379,76.772644,Parking zone demarcated
GRV-2025-00046,No Water Supply issue in Sector 11,Residents of Sector 11 have been complaining about contaminated water for a week. This has been reported before but no action was taken.,Voice Call,SEC-11,Water Supply,No Water Supply,P3-Medium,0.48,2025-07-25T13:36:33,,Escalated,,MCC Public Health Department,Raju Kumar,,30.713567,76.770459,
GRV-2025-00047,Contaminated Water issue in Sector 21,The water supply tanker has not visited Sector 21 for 4 days despite repeated requests.,Voice Call,SEC-21,Water Supply,Contaminated Water,P4-Low,0.11,2026-02-16T21:38:39,2026-03-08T05:38:39,Resolved,19,MCC Public Health Department,Raju Kumar,2,30.700541,76.771655,Water supply restored after valve repair
GRV-2025-00048,Light Post Fallen issue in Sector 25,A high-tension wire near the streetlight pole in Sector 25 is dangling. Major electrocution risk.,Voice Call,SEC-25,Streetlights,Light Post Fallen,P3-Medium,0.34,2025-07-31T16:18:47,2025-08-19T02:18:47,Resolved,18,CPDL / Chandigarh Electricity Department,Er. Hardeep Kaur,3,30.722424,76.802869,Underground cable repaired
GRV-2025-00049,Sewage on Road issue in Sector 12,Sewer line has burst in lane E of Sector 12. Sewage water is entering homes.,WhatsApp,SEC-12,Sewerage,Sewage on Road,P3-Medium,0.51,2025-04-06T19:43:31,2025-04-14T06:43:31,Resolved,7,MCC Public Health Department,Amarjit Kaur,3,30.752693,76.797219,Manhole cover placed
GRV-2025-00050,Manhole Cover Missing issue in Sector 10,"The drain outside house 590, Sector 10 has been blocked for 11 days causing stagnant water.",Mobile App,SEC-10,Sewerage,Manhole Cover Missing,P3-Medium,0.49,2025-09-27T17:10:41,2025-10-02T03:10:41,Resolved,4,MCC Public Health Department,Sandeep Verma,4,30.731969,76.800215,Pipe replaced
GRV-2025-00051,Road surface cracked and uneven in Sector 12,The road in front of mandir in Sector 12 has a Cracked Road Surface. Vehicles are getting damaged. Immediate action required.,Web Portal,SEC-12,Roads,Cracked Road Surface,P3-Medium,0.47,2025-05-18T06:30:06,2025-05-30T13:30:06,Resolved,12,MCC Engineering Department,Er. Harpreet Singh,2,30.775254,76.751334,Repaired using hot-mix patching
GRV-2025-00052,Dirty Water issue in Sector 23,"A major pipeline has burst near mandir in Sector 23, causing water wastage and road damage.",Mobile App,SEC-23,Water Supply,Dirty Water,P3-Medium,0.38,2025-12-02T09:01:54,2025-12-15T20:01:54,Resolved,13,MCC Public Health Department,Sandeep Verma,4,30.713148,76.818712,Water supply restored after valve repair
GRV-2025-00053,Loud Speaker issue in Sector 35,Industrial machinery noise from dispensary in Sector 35 can be heard from far away at night.,Mobile App,SEC-35,Noise Pollution,Loud Speaker,P3-Medium,0.46,2025-10-03T06:47:39,,Pending,,Chandigarh Police,HC Jaswinder Kumar,,30.770648,76.775966,
GRV-2025-00054,Short Circuit Risk issue in Sector 26,A streetlight pole near Sector 26 market has fallen due to wind. It is blocking the road and is dangerous.,Mobile App,SEC-26,Streetlights,Short Circuit Risk,P4-Low,0.06,2025-04-13T21:33:40,2025-05-11T07:33:40,Resolved,27,CPDL / Chandigarh Electricity Department,Er. Gurmeet Pal,4,30.74696,76.767834,Timer corrected
GRV-2025-00055,Missing manhole cover on road in Sector 40,"Near house number 822 in Sector 40, the footpath is broken and vehicles are using it as a parking space.",Web Portal,SEC-40,Roads,Missing Manhole Cover,P4-Low,0.09,2025-06-04T10:32:24,2025-07-07T20:32:24,Resolved,33,MCC Engineering Department,Er. Sukhwinder Kaur,4,30.733843,76.778934,Road resurfacing completed
GRV-2025-00056,Effluent in Park issue in Sector 43,Open sewage water near Sector 43 petrol pump is a major hygiene and health hazard.,Mobile App,SEC-43,Sewerage,Effluent in Park,P3-Medium,0.54,2025-08-22T12:52:24,2025-09-11T21:52:24,Resolved,20,MCC Public Health Department,Paramjit Kaur,3,30.754776,76.77325,Pipe replaced
GRV-2025-00057,Underground Cable Fault issue in Sector 35,All lights on the road near main market in Sector 35 are off. Robberies have increased due to darkness.,Web Portal,SEC-35,Streetlights,Underground Cable Fault,P3-Medium,0.5,2025-10-04T21:35:32,2025-10-11T07:35:32,Resolved,6,CPDL / Chandigarh Electricity Department,Rajesh Pal,3,30.743448,76.819271,Faulty bulb/tube replaced
GRV-2025-00058,New Connection Delay issue in Sector 56,The water supply pipe near Sector 56 government school has been leaking for 5 days. A large amount of water is being wasted.,Voice Call,SEC-56,Water Supply,New Connection Delay,P3-Medium,0.39,2025-12-05T20:55:07,2025-12-16T00:55:07,Resolved,10,MCC Public Health Department,Gurmail Singh,4,30.755131,76.808884,"Contamination addressed, chlorination done"
GRV-2025-00059,Water Logging issue in Sector 40,The water coming from the tap in Sector 40 is muddy in color and has a foul smell. Not fit for drinking.,Mobile App,SEC-40,Water Supply,Water Logging,P4-Low,0.16,2025-06-10T15:18:36,,Pending,,MCC Public Health Department,Sandeep Verma,,30.721387,76.808641,
GRV-2025-00060,Dog Bite issue in Sector 14,A pack of stray dogs in Sector 14 has been attacking residents. 7 people have been bitten in the past week.,Walk-in,SEC-14,Stray Animals,Dog Bite,P3-Medium,0.42,2025-12-03T14:40:26,2025-12-18T22:40:26,Resolved,15,Social Welfare Department Chandigarh,Jagjit Singh,4,30.77041,76.747448,"Dog squad deployed, animals shifted to shelter"
GRV-2025-00061,Effluent in Park issue in Sector 46,Sewage water is flowing onto the main road of Sector 46 due to overflowing drains. Vehicles are splashing it.,Mobile App,SEC-46,Sewerage,Effluent in Park,P2-High,0.76,2025-12-03T18:13:27,,Pending,,MCC Public Health Department,Raju Kumar,,30.765988,76.779577,
GRV-2025-00062,Market Encroachment issue in Manimajra,Illegal vendors near Manimajra market have taken over the road. The lane is now only one vehicle wide.,Web Portal,MNJ,Encroachment,Market Encroachment,P3-Medium,0.46,2026-01-16T06:07:59,2026-01-24T14:07:59,Resolved,8,MCC Town Planning Department,Rajdeep Kaur,1,30.776643,76.756185,Footpath restored
GRV-2025-00063,"Broken footpath, risk to pedestrians in Timber Market","Since past 6 days, a Broken Footpath has been causing accidents in Timber Market near community centre. Two-wheelers are at risk.",Web Portal,TMK,Roads,Broken Footpath,P3-Medium,0.46,2025-10-27T13:27:41,,Rejected,,MCC Engineering Department,Jagtar Singh,,30.707296,76.747615,
GRV-2025-00064,Sewer Line Burst issue in Sector 34,The manhole near Sector 34 market is open and is a serious danger to pedestrians and children.,Voice Call,SEC-34,Sewerage,Sewer Line Burst,P2-High,0.72,2025-08-20T13:24:05,2025-08-26T15:24:05,Resolved,6,MCC Public Health Department,Gurmail Singh,3,30.770479,76.75097,Drain desilted and cleared
GRV-2025-00065,"Broken footpath, risk to pedestrians in Sector 41",The road in front of mandir in Sector 41 has a Broken Footpath. Vehicles are getting damaged. Immediate action required.,Voice Call,SEC-41,Roads,Broken Footpath,P1-Critical,0.92,2025-08-13T12:05:57,2025-08-13T15:05:57,Resolved,0,MCC Engineering Department,Er. Sukhwinder Kaur,2,30.758401,76.768123,Drainage repaired alongside road
GRV-2025-00066,Burst Pipe issue in Sector 22,"A major pipeline has burst near sukhna lake road in Sector 22, causing water wastage and road damage.",Voice Call,SEC-22,Water Supply,Burst Pipe,P4-Low,0.16,2025-07-16T18:18:41,,Rejected,,MCC Public Health Department,Paramjit Kaur,,30.704366,76.811833,
GRV-2025-00067,Damaged Pole issue in Sector 35,All lights on the road near bus stop in Sector 35 are off. Robberies have increased due to darkness.,WhatsApp,SEC-35,Streetlights,Damaged Pole,P2-High,0.58,2026-01-25T19:23:34,,Pending,,CPDL / Chandigarh Electricity Department,SDO Pankaj,,30.754635,76.801018,
GRV-2025-00068,Choked Drain issue in Sector 3,A major drain near sukhna lake road in Sector 3 is choked. Foul smell is unbearable and mosquitoes are breeding.,Email,SEC-03,Sewerage,Choked Drain,P3-Medium,0.48,2025-04-13T10:17:05,,In Progress,,MCC Public Health Department,Amarjit Kaur,,30.724793,76.780904,
GRV-2025-00069,Parking on Footpath issue in Sector 54,Tree nursery has been illegally set up on the road margin near Sector 54 Phase C.,Mobile App,SEC-54,Encroachment,Parking on Footpath,P3-Medium,0.32,2025-08-14T20:39:38,,Pending,,MCC Town Planning Department,Manpreet Singh,,30.704402,76.793286,
GRV-2025-00070,Broken Equipment in Park issue in Sector 12,The swing and slide equipment in Sector 12 park are broken. Children are getting injured.,Web Portal,SEC-12,Parks/Trees,Broken Equipment in Park,P3-Medium,0.33,2025-12-25T14:46:56,,In Progress,,MCC Horticulture Department,Sukhdeep Kaur,,30.709445,76.811992,
GRV-2025-00071,Water Tanker Not Coming issue in Sector 54,The water supply tanker has not visited Sector 54 for 3 days despite repeated requests.,Web Portal,SEC-54,Water Supply,Water Tanker Not Coming,P4-Low,0.26,2025-05-12T11:16:49,,Rejected,,MCC Public Health Department,Sandeep Verma,,30.708232,76.785913,
GRV-2025-00072,Illegal Extension issue in Sector 18,Unauthorized construction is happening near house 979 in Sector 18. Work going on even at night.,Mobile App,SEC-18,Building Violation,Illegal Extension,P3-Medium,0.53,2026-01-24T19:14:20,,Pending,,MCC Town Planning Department,Gurpreet Sandhu,,30.719861,76.813268,
GRV-2025-00073,Bin Not Emptied issue in Sector 21,Waste from the nearby shop is regularly dumped outside house 481 in Sector 21. Please take action.,Web Portal,SEC-21,Garbage/Sanitation,Bin Not Emptied,P3-Medium,0.52,2026-01-14T15:20:05,,Rejected,,MCC Public Health Department,Gurmail Singh,,30.744247,76.740638,
GRV-2025-00074,Dog Pack in Colony issue in Sector 22,Residents of Sector 22 lane E are scared to step out at night due to aggressive stray dogs.,Mobile App,SEC-22,Stray Animals,Dog Pack in Colony,P2-High,0.55,2025-10-18T13:34:22,2025-10-25T01:34:22,Resolved,6,Social Welfare Department Chandigarh,Anita Rani,5,30.700117,76.792584,"Dog squad deployed, animals shifted to shelter"
GRV-2025-00075,Parking Chaos issue in Sector 12,"The roundabout near primary school, Sector 12 has no signage and vehicles are going in wrong directions.",Voice Call,SEC-12,Traffic,Parking Chaos,P3-Medium,0.52,2025-09-16T17:29:47,,In Progress,,Traffic Police Chandigarh,Const. Suresh Pal,,30.706792,76.747646,
GRV-2025-00076,No Traffic Police issue in Sector 40,Wrong-side driving is rampant near Sector 40 market. No traffic police present.,Mobile App,SEC-40,Traffic,No Traffic Police,P2-High,0.73,2025-12-08T16:28:17,,Pending,,Traffic Police Chandigarh,Traffic SI Harjot,,30.718689,76.815484,
GRV-2025-00077,Open Manhole issue in Sector 50,A major drain near petrol pump in Sector 50 is choked. Foul smell is unbearable and mosquitoes are breeding.,Web Portal,SEC-50,Sewerage,Open Manhole,P4-Low,0.14,2025-08-17T09:05:10,,In Progress,,MCC Public Health Department,Amarjit Kaur,,30.764608,76.764337,
GRV-2025-00078,Light Post Fallen issue in Sector 6,The streetlights in Sector 6 are switched on during the daytime and off at night. Timer needs fixing.,Web Portal,SEC-06,Streetlights,Light Post Fallen,P3-Medium,0.51,2025-05-06T18:54:28,2025-05-27T06:54:28,Resolved,20,CPDL / Chandigarh Electricity Department,Rajesh Pal,3,30.736963,76.804312,New LED light installed
GRV-2025-00079,Open Manhole issue in Sector 12,"The sewer is overflowing near house 950, Sector 12. Dirty water is spreading on the road.",WhatsApp,SEC-12,Sewerage,Open Manhole,P3-Medium,0.45,2026-02-04T08:01:04,2026-02-13T19:01:04,Resolved,9,MCC Public Health Department,Gurmail Singh,4,30.707358,76.807782,Drainage unblocked using jet machine
GRV-2025-00080,Water Tanker Not Coming issue in Sector 12,The water supply pipe near Sector 12 mandir has been leaking for 4 days. A large amount of water is being wasted.,Mobile App,SEC-12,Water Supply,Water Tanker Not Coming,P2-High,0.64,2026-01-26T14:17:28,,Pending,,MCC Public Health Department,Gurmail Singh,,30.770674,76.742772,
GRV-2025-00081,Flyover structure showing damage in Sector 39,"Near house number 402 in Sector 39, the footpath is broken and vehicles are using it as a parking space.",Web Portal,SEC-39,Roads,Flyover Damage,P4-Low,0.13,2025-09-24T22:15:40,,Pending,,MCC Engineering Department,Er. Sukhwinder Kaur,,30.779527,76.783493,
GRV-2025-00082,Large pothole causing accidents in Sector 25,The Pothole near Sector 26 chowk has been unattended for 14 days. Please take immediate action.,Email,SEC-25,Roads,Pothole,P4-Low,0.18,2025-03-16T14:03:51,2025-04-22T23:03:51,Resolved,37,MCC Engineering Department,Jagtar Singh,4,30.779968,76.817918,Pothole filled with bitumen
GRV-2025-00083,Construction Noise issue in Sector 20,Firecrackers are being burst in Sector 20 every night despite the ban. Action needed.,Web Portal,SEC-20,Noise Pollution,Construction Noise,P3-Medium,0.34,2025-11-13T17:58:37,2025-11-17T05:58:37,Resolved,3,Chandigarh Police,HC Jaswinder Kumar,5,30.745089,76.785049,Complaint registered
GRV-2025-00084,No Sweeping issue in Manimajra,The area near Manimajra Phase A park has become an illegal garbage dump point. Please take immediate action as the situation is worsening.,Mobile App,MNJ,Garbage/Sanitation,No Sweeping,P1-Critical,0.9,2025-06-11T12:51:08,2025-06-14T00:51:08,Resolved,2,MCC Public Health Department,Sandeep Verma,5,30.767543,76.765887,Dustbin replaced
GRV-2025-00085,Signal Not Working issue in Sector 15,Wrong-side driving is rampant near Sector 15 market. No traffic police present.,Voice Call,SEC-15,Traffic,Signal Not Working,P4-Low,0.09,2025-04-22T11:46:27,,Pending,,Traffic Police Chandigarh,Const. Suresh Pal,,30.763347,76.816853,
GRV-2025-00086,Meter Tampered issue in Sector 15,The transformer near government school in Sector 15 is sparking and making loud noise. Dangerous situation.,Voice Call,SEC-15,Electricity,Meter Tampered,P1-Critical,0.95,2026-02-23T18:54:49,,In Progress,,CPDL / Chandigarh Electricity Department,Er. Hardeep Kaur,,30.777215,76.742591,
GRV-2025-00087,Donkey on Road issue in Sector 22,Donkeys abandoned near Sector 22 Phase C are blocking the lane and eating household garbage.,Mobile App,SEC-22,Stray Animals,Donkey on Road,P4-Low,0.05,2026-02-10T08:52:45,2026-03-10T16:52:45,Resolved,28,Social Welfare Department Chandigarh,Baldev Singh,3,30.719963,76.745424,"Dog squad deployed, animals shifted to shelter"
GRV-2025-00088,Speed breaker missing near school in Sector 51,"There is a large Speed Breaker Missing near house no. 149, Sector 51. This is causing public inconvenience. Please repair urgently.",Web Portal,SEC-51,Roads,Speed Breaker Missing,P1-Critical,0.91,2025-04-22T21:50:55,,In Progress,,MCC Engineering Department,Er. Harpreet Singh,,30.746244,76.800659,
GRV-2025-00089,Transformer Fault issue in Sector 15,Power supply is tripping every few hours in Sector 15 Phase A. Appliances are getting damaged.,Voice Call,SEC-15,Electricity,Transformer Fault,P2-High,0.59,2025-06-28T08:35:57,,Pending,,CPDL / Chandigarh Electricity Department,SDO Pankaj,,30.778243,76.767036,
GRV-2025-00090,Flyover structure showing damage in Dhanas,"There is a large Flyover Damage near house no. 541, Dhanas. Multiple neighbors have also complained. Please repair urgently.",Web Portal,DHN,Roads,Flyover Damage,P3-Medium,0.54,2025-08-06T14:42:18,2025-08-18T18:42:18,Resolved,12,MCC Engineering Department,Er. Parveen Kumar,1,30.745742,76.807188,Repaired using hot-mix patching
GRV-2025-00091,"Broken footpath, risk to pedestrians in Sector 7","There is a large Broken Footpath near house no. 537, Sector 7. Multiple neighbors have also complained. Please repair urgently.",Mobile App,SEC-07,Roads,Broken Footpath,P4-Low,0.19,2026-03-08T21:54:07,2026-03-20T18:00:00,Resolved,26,MCC Engineering Department,Jagtar Singh,3,30.752883,76.747291,Footpath relaid
GRV-2025-00092,Effluent in Park issue in Sector 26,Sewage water is flowing onto the main road of Sector 26 due to overflowing drains. Vehicles are splashing it.,Voice Call,SEC-26,Sewerage,Effluent in Park,P3-Medium,0.51,2025-09-08T10:48:44,2025-09-14T12:48:44,Resolved,6,MCC Public Health Department,Paramjit Kaur,3,30.743316,76.817656,Pipe replaced
GRV-2025-00093,Dead Animal Not Removed issue in Sector 18,The garbage collection vehicle has not come to Sector 18 for 8 days. Waste is piling up at the corner.,Voice Call,SEC-18,Garbage/Sanitation,Dead Animal Not Removed,P4-Low,0.09,2025-06-28T07:32:36,,Rejected,,MCC Public Health Department,Amarjit Kaur,,30.772036,76.804036,
GRV-2025-00094,Drain Needs Cleaning issue in Sector 15,The sewage smell from the drain near Sector 15 Phase B is affecting the entire neighborhood.,Mobile App,SEC-15,Sewerage,Drain Needs Cleaning,P4-Low,0.3,2025-09-21T14:20:58,,Pending,,MCC Public Health Department,Gurmail Singh,,30.758168,76.804587,
GRV-2025-00095,Choked Drain issue in Sector 26,A manhole cover is missing near the school in Sector 26. Children are at risk of falling.,Mobile App,SEC-26,Sewerage,Choked Drain,P4-Low,0.12,2025-05-17T09:59:06,2025-06-29T11:59:06,Resolved,43,MCC Public Health Department,Amarjit Kaur,5,30.770411,76.810231,Manhole cover placed
GRV-2025-00096,Dirty Water issue in Sector 26,"There is no water connection in our newly allotted house at Sector 26. Applied 9 days ago, no action.",Mobile App,SEC-26,Water Supply,Dirty Water,P2-High,0.77,2025-06-12T13:03:47,2025-06-16T18:03:47,Resolved,4,MCC Public Health Department,Sandeep Verma,1,30.765391,76.764244,Tanker dispatched
GRV-2025-00097,Dirty Water issue in Manimajra,The water supply in Manimajra Phase C area is completely disrupted. Over 3 families are affected.,Voice Call,MNJ,Water Supply,Dirty Water,P2-High,0.7,2025-04-20T20:13:58,2025-04-28T03:13:58,Resolved,7,MCC Public Health Department,Sandeep Verma,3,30.74132,76.769913,Connection restored
GRV-2025-00098,Power Cut issue in Sector 35,Power supply is tripping every few hours in Sector 35 Phase B. Appliances are getting damaged.,Mobile App,SEC-35,Electricity,Power Cut,P2-High,0.77,2025-05-18T07:15:02,2025-05-22T08:15:02,Resolved,4,CPDL / Chandigarh Electricity Department,Rajesh Pal,4,30.721918,76.805881,Cable repaired
GRV-2025-00099,Rash Driving issue in Sector 26,Overspeeding vehicles on the straight road of Sector 26 have caused 4 accidents this month.,Mobile App,SEC-26,Traffic,Rash Driving,P3-Medium,0.34,2026-02-07T08:18:01,,Pending,,Traffic Police Chandigarh,Insp. Daljit Singh,,30.730925,76.753033,
GRV-2025-00100,Water Logging issue in Sector 50,"A major pipeline has burst near bank branch in Sector 50, causing water wastage and road damage.",Mobile App,SEC-50,Water Supply,Water Logging,P3-Medium,0.53,2025-08-31T06:14:16,2025-09-12T18:14:16,Resolved,12,MCC Public Health Department,Paramjit Kaur,4,30.733905,76.770118,Connection restored
GRV-2025-00101,Bin Not Emptied issue in Sector 31,No sweeping has been done in Sector 31 lane E for over a week. The area is filthy.,Email,SEC-31,Garbage/Sanitation,Bin Not Emptied,P4-Low,0.19,2025-09-12T15:43:06,2025-10-19T17:43:06,Resolved,37,MCC Public Health Department,Raju Kumar,5,30.751248,76.808919,Regular sweeping resumed
GRV-2025-00102,Dog Attack issue in Sector 42,"A dog bit my child near house 253, Sector 42. The dog is still roaming the area.",Web Portal,SEC-42,Stray Animals,Dog Attack,P3-Medium,0.48,2025-12-20T15:16:58,2026-01-05T22:16:58,Resolved,16,Social Welfare Department Chandigarh,Anita Rani,4,30.746642,76.81958,Anti-rabies drive conducted
GRV-2025-00103,No Sweeping issue in Sector 23,No sanitation worker has been assigned to our lane in Sector 23 for 12 days despite repeated calls to the helpline.,WhatsApp,SEC-23,Garbage/Sanitation,No Sweeping,P4-Low,0.03,2025-04-18T14:46:51,,Pending,,MCC Public Health Department,Paramjit Kaur,,30.744723,76.81301,
GRV-2025-00104,Stray Animals Near School issue in Sector 42,"A dog bit my child near house 463, Sector 42. The dog is still roaming the area.",Mobile App,SEC-42,Stray Animals,Stray Animals Near School,P3-Medium,0.45,2025-11-07T09:30:03,,Pending,,Social Welfare Department Chandigarh,Preeti Sharma,,30.769311,76.786686,
GRV-2025-00105,Flyover structure showing damage in Sector 10,Flyover Damage has developed near the main market of Sector 10. It is creating problems for daily commuters and shopkeepers.,Web Portal,SEC-10,Roads,Flyover Damage,P3-Medium,0.39,2026-03-13T20:09:20,2026-03-20T18:00:00,Resolved,8,MCC Engineering Department,Er. Parveen Kumar,3,30.778931,76.765073,Footpath relaid
GRV-2025-00106,Streetlight Not Working issue in Sector 1,There are no streetlights in the inner lane of Sector 1. Women feel unsafe walking there at night.,Voice Call,SEC-01,Streetlights,Streetlight Not Working,P3-Medium,0.41,2025-08-12T19:30:24,2025-08-15T20:30:24,Resolved,3,CPDL / Chandigarh Electricity Department,SDO Pankaj,3,30.729848,76.741126,New LED light installed
GRV-2025-00107,Sewage on Road issue in Sector 47,Sewer line has burst in lane B of Sector 47. Sewage water is entering homes.,Voice Call,SEC-47,Sewerage,Sewage on Road,P3-Medium,0.33,2025-08-26T15:10:04,2025-08-30T20:10:04,Resolved,4,MCC Public Health Department,Amarjit Kaur,3,30.741623,76.781929,Manhole cover placed
GRV-2025-00108,Traffic Jam issue in Grain Market,There is no zebra crossing near the school in Grain Market. Accidents involving students have been reported.,Mobile App,GRM,Traffic,Traffic Jam,P4-Low,0.07,2026-03-14T12:46:01,2026-03-20T18:00:00,Resolved,44,Traffic Police Chandigarh,Const. Suresh Pal,2,30.756889,76.80337,Additional traffic constable deployed
GRV-2025-00109,Burst Pipe issue in Timber Market,Residents of Timber Market have been complaining about contaminated water for a week. This has been reported before but no action was taken.,Web Portal,TMK,Water Supply,Burst Pipe,P3-Medium,0.4,2025-06-21T14:30:44,2025-06-28T18:30:44,Resolved,7,MCC Public Health Department,Raju Kumar,4,30.700744,76.77367,Connection restored
GRV-2025-00110,All Lights Off issue in Sector 43,More than half the streetlights in Sector 43 are non-functional. The entire area feels unsafe after sunset.,Mobile App,SEC-43,Streetlights,All Lights Off,P4-Low,0.24,2025-09-08T12:49:16,,In Progress,,CPDL / Chandigarh Electricity Department,Er. Hardeep Kaur,,30.76652,76.81785,
GRV-2025-00111,Waterlogging on main road in Sector 44,A serious Waterlogging on Road issue exists on the road connecting Sector 44 to the adjoining sector. Heavy traffic passes through here daily.,Email,SEC-44,Roads,Waterlogging on Road,P3-Medium,0.3,2025-09-30T09:53:36,2025-10-18T12:53:36,Resolved,18,MCC Engineering Department,Er. Parveen Kumar,4,30.706004,76.797886,Repaired using hot-mix patching
GRV-2025-00112,Parking Chaos issue in Sector 41,Rash driving by youngsters in Sector 41 Phase A at night is causing fear among residents.,Web Portal,SEC-41,Traffic,Parking Chaos,P3-Medium,0.5,2025-06-29T09:06:54,2025-07-03T10:06:54,Resolved,4,Traffic Police Chandigarh,Const. Suresh Pal,4,30.713641,76.768602,Additional traffic constable deployed
GRV-2025-00113,Missing manhole cover on road in Sector 40,The road in front of gurudwara in Sector 40 has a Missing Manhole Cover. Vehicles are getting damaged. Immediate action required.,Web Portal,SEC-40,Roads,Missing Manhole Cover,P2-High,0.72,2025-08-21T19:41:56,2025-08-28T22:41:56,Resolved,7,MCC Engineering Department,Jagtar Singh,2,30.758113,76.818526,Repaired using hot-mix patching
GRV-2025-00114,Contaminated Water issue in Sector 12,"There is no water connection in our newly allotted house at Sector 12. Applied 14 days ago, no action.",Email,SEC-12,Water Supply,Contaminated Water,P1-Critical,0.9,2025-07-12T19:28:02,,Escalated,,MCC Public Health Department,Sandeep Verma,,30.705067,76.792398,
GRV-2025-00115,Stray Dog Menace issue in Sector 44,Donkeys abandoned near Sector 44 Phase A are blocking the lane and eating household garbage.,Mobile App,SEC-44,Stray Animals,Stray Dog Menace,P3-Medium,0.47,2025-12-17T10:53:52,2026-01-06T20:53:52,Resolved,20,Social Welfare Department Chandigarh,Baldev Singh,1,30.77475,76.780445,"Dog squad deployed, animals shifted to shelter"
GRV-2025-00116,Open Defecation issue in Industrial Area Phase I,The public toilet in Industrial Area Phase I Phase B has been locked for 14 days. Residents are suffering.,Mobile App,IND-1,Public Toilet,Open Defecation,P4-Low,0.19,2025-08-02T13:05:29,2025-09-06T23:05:29,Resolved,35,MCC Public Health Department,Sandeep Verma,2,30.739876,76.765285,Door repaired
GRV-2025-00117,Illegal Connection issue in Sector 46,Power supply is tripping every few hours in Sector 46 Phase A. Appliances are getting damaged.,Web Portal,SEC-46,Electricity,Illegal Connection,P3-Medium,0.54,2025-06-25T07:52:14,,Pending,,CPDL / Chandigarh Electricity Department,Er. Gurmeet Pal,,30.767545,76.766558,
GRV-2025-00118,Water Logging issue in Sector 38,The water supply in Sector 38 Phase A area is completely disrupted. Over 5 families are affected.,Mobile App,SEC-38,Water Supply,Water Logging,P3-Medium,0.39,2025-08-23T15:35:33,,Pending,,MCC Public Health Department,Sandeep Verma,,30.729911,76.748506,
GRV-2025-00119,"Broken footpath, risk to pedestrians in Sector 35","After the last rain, the Broken Footpath near community centre in Sector 35 has worsened. Multiple vehicles have been damaged.",Web Portal,SEC-35,Roads,Broken Footpath,P3-Medium,0.51,2025-06-08T16:06:48,2025-06-24T17:06:48,Resolved,16,MCC Engineering Department,Er. Sukhwinder Kaur,4,30.747105,76.801772,Speed breaker installed
GRV-2025-00120,Waste Near Park issue in Sector 31,The area near Sector 31 Phase A park has become an illegal garbage dump point. Please take immediate action as the situation is worsening.,Mobile App,SEC-31,Garbage/Sanitation,Waste Near Park,P2-High,0.75,2026-02-04T11:46:52,,Rejected,,MCC Public Health Department,Amarjit Kaur,,30.710271,76.770992,
GRV-2025-00121,Flyover structure showing damage in Sector 38,Road divider near Sector 38 gurudwara is broken and poses a danger to motorists. Kindly look into this on priority.,WhatsApp,SEC-38,Roads,Flyover Damage,P2-High,0.75,2025-05-12T22:19:53,,In Progress,,MCC Engineering Department,Jagtar Singh,,30.75612,76.808857,
GRV-2025-00122,Stinky Garbage issue in Sector 40,No sweeping has been done in Sector 40 lane C for over a week. The area is filthy.,Walk-in,SEC-40,Garbage/Sanitation,Stinky Garbage,P4-Low,0.16,2025-09-26T09:48:22,,Rejected,,MCC Public Health Department,Paramjit Kaur,,30.744982,76.786625,
GRV-2025-00123,Smelly Toilet issue in Sector 43,The toilet seat and flush in the public toilet near Sector 43 Sector 27 Chowk are completely broken.,Voice Call,SEC-43,Public Toilet,Smelly Toilet,P3-Medium,0.35,2025-12-14T11:18:43,,Rejected,,MCC Public Health Department,Amarjit Kaur,,30.720045,76.807151,
GRV-2025-00124,Litter Near Market issue in Sector 17,The garbage collection vehicle has not come to Sector 17 for 15 days. Waste is piling up at the corner.,Web Portal,SEC-17,Garbage/Sanitation,Litter Near Market,P3-Medium,0.5,2025-12-13T15:44:42,,Pending,,MCC Public Health Department,Amarjit Kaur,,30.703758,76.770527,
GRV-2025-00125,Illegal Dumping issue in Sector 51,The area near Sector 51 Phase B park has become an illegal garbage dump point. This is causing public inconvenience.,Mobile App,SEC-51,Garbage/Sanitation,Illegal Dumping,P3-Medium,0.49,2025-08-13T12:49:46,2025-08-22T17:49:46,Resolved,9,MCC Public Health Department,Raju Kumar,3,30.754613,76.754958,Illegal dump cleared
GRV-2025-00126,No Traffic Police issue in Sector 45,"Auto-rickshaws are using the main market of Sector 45 as a stand, blocking through traffic.",Mobile App,SEC-45,Traffic,No Traffic Police,P2-High,0.67,2026-02-23T07:09:59,2026-02-26T17:09:59,Resolved,3,Traffic Police Chandigarh,Insp. Daljit Singh,4,30.750029,76.807451,Signal repaired
GRV-2025-00127,Litter Near Market issue in Sector 35,The area near Sector 35 Phase B park has become an illegal garbage dump point. Kindly look into this on priority.,Voice Call,SEC-35,Garbage/Sanitation,Litter Near Market,P4-Low,0.16,2025-06-30T17:14:56,,Rejected,,MCC Public Health Department,Amarjit Kaur,,30.717068,76.766551,
GRV-2025-00128,Sewage on Road issue in Sector 22,"The drain outside house 643, Sector 22 has been blocked for 9 days causing stagnant water.",Mobile App,SEC-22,Sewerage,Sewage on Road,P4-Low,0.28,2025-07-03T07:43:56,,Rejected,,MCC Public Health Department,Paramjit Kaur,,30.725675,76.813275,
GRV-2025-00129,Low Pressure issue in Sector 26,Residents of Sector 26 have been complaining about contaminated water for a week. This has been reported before but no action was taken.,Voice Call,SEC-26,Water Supply,Low Pressure,P3-Medium,0.37,2025-09-03T16:32:05,,Pending,,MCC Public Health Department,Raju Kumar,,30.775857,76.753392,
GRV-2025-00130,New Light Needed issue in Sector 36,"The light pole near rose garden, Sector 36 has rusted and is leaning dangerously. Please replace.",Mobile App,SEC-36,Streetlights,New Light Needed,P3-Medium,0.49,2025-04-29T20:45:21,,Escalated,,CPDL / Chandigarh Electricity Department,Er. Gurmeet Pal,,30.703031,76.74586,
GRV-2025-00131,Flickering Light issue in Sector 52,New streetlights were promised for Sector 52 53 months ago but have not been installed yet.,Mobile App,SEC-52,Streetlights,Flickering Light,P3-Medium,0.38,2025-07-28T09:34:00,2025-08-02T21:34:00,Resolved,5,CPDL / Chandigarh Electricity Department,Er. Hardeep Kaur,1,30.76786,76.768616,New LED light installed
GRV-2025-00132,Road signage missing at junction in Sector 12,"Near house number 408 in Sector 12, the footpath is broken and vehicles are using it as a parking space.",Web Portal,SEC-12,Roads,Road Signage Missing,P3-Medium,0.43,2025-05-11T18:50:51,2025-05-31T23:50:51,Resolved,20,MCC Engineering Department,Jagtar Singh,2,30.754183,76.813134,Speed breaker installed
GRV-2025-00133,Waterlogging on main road in Sector 2,Road divider near Sector 2 bus stop is broken and poses a danger to motorists. Multiple neighbors have also complained.,Voice Call,SEC-02,Roads,Waterlogging on Road,P3-Medium,0.49,2026-01-28T17:13:26,,Pending,,MCC Engineering Department,Er. Balvinder Singh,,30.77245,76.808117,
GRV-2025-00134,Toilet Locked issue in Sector 15,"No sweeper is assigned to the public toilet near sector park, Sector 15. Condition is pathetic.",Walk-in,SEC-15,Public Toilet,Toilet Locked,P2-High,0.57,2025-11-13T14:06:12,,Pending,,MCC Public Health Department,Paramjit Kaur,,30.758047,76.778975,
GRV-2025-00135,Bin Not Emptied issue in Sector 24,No sanitation worker has been assigned to our lane in Sector 24 for 5 days despite repeated calls to the helpline.,Mobile App,SEC-24,Garbage/Sanitation,Bin Not Emptied,P4-Low,0.1,2025-10-06T10:36:36,,Rejected,,MCC Public Health Department,Paramjit Kaur,,30.729159,76.765307,
GRV-2025-00136,Road surface cracked and uneven in Sector 15,The footpath/road at Sector 15 Sector 26 Chowk has been damaged. Senior citizens are finding it difficult to walk.,Web Portal,SEC-15,Roads,Cracked Road Surface,P4-Low,0.14,2025-07-27T15:31:35,2025-08-09T18:31:35,Resolved,13,MCC Engineering Department,Er. Harpreet Singh,4,30.767343,76.808697,Speed breaker installed
GRV-2025-00137,Garbage Dumped on Road issue in Dhanas,No sweeping has been done in Dhanas lane A for over a week. The area is filthy.,WhatsApp,DHN,Garbage/Sanitation,Garbage Dumped on Road,P1-Critical,0.84,2025-03-18T14:34:57,2025-03-22T01:34:57,Resolved,3,MCC Public Health Department,Amarjit Kaur,3,30.717865,76.801772,Dustbin replaced
GRV-2025-00138,No Light in Lane issue in Sector 14,New streetlights were promised for Sector 14 15 months ago but have not been installed yet.,Mobile App,SEC-14,Streetlights,No Light in Lane,P4-Low,0.05,2025-10-04T10:47:46,2025-11-10T16:47:46,Resolved,37,CPDL / Chandigarh Electricity Department,SDO Pankaj,3,30.739011,76.745029,Faulty bulb/tube replaced
GRV-2025-00139,Stray Animals Near School issue in Sector 18,Donkeys abandoned near Sector 18 Phase D are blocking the lane and eating household garbage.,Email,SEC-18,Stray Animals,Stray Animals Near School,P4-Low,0.29,2025-08-30T22:40:53,2025-09-24T10:40:53,Resolved,24,Social Welfare Department Chandigarh,Preeti Sharma,4,30.745613,76.770133,Cattle returned to owner
GRV-2025-00140,Extra Floor Built issue in Sector 24,The setback rule is being violated in the building at Sector 24 Phase D. No gap from road.,Mobile App,SEC-24,Building Violation,Extra Floor Built,P3-Medium,0.52,2025-03-03T10:28:10,2025-03-13T12:28:10,Resolved,10,MCC Town Planning Department,Gurpreet Sandhu,4,30.716921,76.754952,Building regularized
GRV-2025-00141,Water Tanker Not Coming issue in Sector 38,The water supply in Sector 38 Phase A area is completely disrupted. Over 8 families are affected.,WhatsApp,SEC-38,Water Supply,Water Tanker Not Coming,P3-Medium,0.45,2025-08-31T19:01:15,,In Progress,,MCC Public Health Department,Gurmail Singh,,30.703452,76.785879,
GRV-2025-00142,Factory Noise issue in Sector 14,Loud political gatherings near Sector 14 market during odd hours are causing noise pollution.,Voice Call,SEC-14,Noise Pollution,Factory Noise,P3-Medium,0.54,2025-06-18T21:55:30,2025-06-27T01:55:30,Resolved,8,Chandigarh Police,Insp. Balbir Singh,4,30.763569,76.805636,DJs served notice
GRV-2025-00143,"Broken footpath, risk to pedestrians in Sector 40",A serious Broken Footpath issue exists on the road connecting Sector 40 to the adjoining sector. Heavy traffic passes through here daily.,Mobile App,SEC-40,Roads,Broken Footpath,P3-Medium,0.4,2025-04-26T12:33:55,,Escalated,,MCC Engineering Department,Er. Balvinder Singh,,30.772747,76.794749,
GRV-2025-00144,Open Manhole issue in Sector 38,The manhole near Sector 38 market is open and is a serious danger to pedestrians and children.,Voice Call,SEC-38,Sewerage,Open Manhole,P3-Medium,0.43,2025-07-29T07:44:33,2025-08-14T11:44:33,Resolved,16,MCC Public Health Department,Gurmail Singh,4,30.730499,76.787124,Drainage unblocked using jet machine
GRV-2025-00145,Water Logging issue in Sector 11,The water coming from the tap in Sector 11 is muddy in color and has a foul smell. Not fit for drinking.,Email,SEC-11,Water Supply,Water Logging,P1-Critical,0.8,2025-10-25T06:36:33,2025-10-25T15:36:33,Resolved,0,MCC Public Health Department,Sandeep Verma,3,30.716433,76.804343,Water supply restored after valve repair
GRV-2025-00146,Burst Pipe issue in Sector 24,The water coming from the tap in Sector 24 is muddy in color and has a foul smell. Not fit for drinking.,WhatsApp,SEC-24,Water Supply,Burst Pipe,P2-High,0.62,2025-09-19T12:26:35,,Rejected,,MCC Public Health Department,Gurmail Singh,,30.762703,76.778597,
GRV-2025-00147,Heavy Vehicle in Residential issue in Sector 37,Traffic jam near Sector 37 Sector 42 Chowk every morning between 8-10 AM due to school buses and office traffic.,WhatsApp,SEC-37,Traffic,Heavy Vehicle in Residential,P3-Medium,0.5,2026-02-28T09:13:32,,Rejected,,Traffic Police Chandigarh,Traffic SI Harjot,,30.732045,76.767075,
GRV-2025-00148,Stinky Garbage issue in Sector 39,People have started dumping garbage on the road near Sector 39 Phase B as there is no proper bin.,Web Portal,SEC-39,Garbage/Sanitation,Stinky Garbage,P4-Low,0.08,2025-06-21T07:46:24,2025-07-23T17:46:24,Resolved,32,MCC Public Health Department,Gurmail Singh,4,30.756928,76.787798,Warning issued to dumper
GRV-2025-00149,Garbage Dumped on Road issue in Sector 40,Dead dog near Sector 40 Sector 16 Chowk has not been removed for 5 days. Spreading disease risk.,Mobile App,SEC-40,Garbage/Sanitation,Garbage Dumped on Road,P3-Medium,0.39,2025-10-04T11:05:17,2025-10-19T17:05:17,Resolved,15,MCC Public Health Department,Sandeep Verma,3,30.746886,76.781419,Warning issued to dumper
GRV-2025-00150,Illegal Extension issue in Sector 11,The setback rule is being violated in the building at Sector 11 Phase B. No gap from road.,Voice Call,SEC-11,Building Violation,Illegal Extension,P3-Medium,0.44,2025-06-09T19:32:06,2025-06-29T21:32:06,Resolved,20,MCC Town Planning Department,Rajdeep Kaur,3,30.775761,76.804235,Building regularized
GRV-2025-00151,Drainage Blockage issue in Timber Market,"The drain outside house 356, Timber Market has been blocked for 13 days causing stagnant water.",Mobile App,TMK,Sewerage,Drainage Blockage,P3-Medium,0.52,2026-01-06T21:07:16,,Escalated,,MCC Public Health Department,Amarjit Kaur,,30.705404,76.790693,
GRV-2025-00152,Water Pipe Leakage issue in Sector 43,"Our area Sector 43 gets water for only 30 minutes a day, which is not sufficient. Please look into this.",Web Portal,SEC-43,Water Supply,Water Pipe Leakage,P3-Medium,0.32,2025-09-15T16:04:35,2025-09-24T00:04:35,Resolved,8,MCC Public Health Department,Paramjit Kaur,3,30.771545,76.761526,Tanker dispatched
GRV-2025-00153,Transformer Fault issue in Sector 35,The transformer near dispensary in Sector 35 is sparking and making loud noise. Dangerous situation.,Mobile App,SEC-35,Electricity,Transformer Fault,P2-High,0.74,2025-04-27T08:43:42,2025-05-01T18:43:42,Resolved,4,CPDL / Chandigarh Electricity Department,Rajesh Pal,4,30.743318,76.743381,Power supply restored
GRV-2025-00154,Waste Near Park issue in Sector 24,"A large garbage dump has appeared near sector park, Sector 24. Dogs and stray animals are digging through it.",Mobile App,SEC-24,Garbage/Sanitation,Waste Near Park,P4-Low,0.23,2025-04-18T22:51:27,,In Progress,,MCC Public Health Department,Amarjit Kaur,,30.738266,76.783261,
GRV-2025-00155,Pig Nuisance issue in Sector 23,Donkeys abandoned near Sector 23 Phase D are blocking the lane and eating household garbage.,Email,SEC-23,Stray Animals,Pig Nuisance,P4-Low,0.11,2025-04-26T17:39:55,2025-05-19T20:39:55,Resolved,23,Social Welfare Department Chandigarh,Jagjit Singh,3,30.721553,76.816682,Area monitored by animal control
GRV-2025-00156,Change of Land Use issue in Sector 24,A heritage structure near Sector 24 is being modified without permission. Please inspect.,Web Portal,SEC-24,Building Violation,Change of Land Use,P4-Low,0.17,2026-03-12T13:52:06,2026-03-20T18:00:00,Resolved,24,MCC Town Planning Department,Manpreet Singh,3,30.730471,76.751667,Building regularized
GRV-2025-00157,Flickering Light issue in Sector 33,The streetlight near house 531 in Sector 33 is flickering and creating nuisance at night.,Voice Call,SEC-33,Streetlights,Flickering Light,P2-High,0.76,2025-03-19T09:44:10,2025-03-20T13:44:10,Resolved,1,CPDL / Chandigarh Electricity Department,Er. Gurmeet Pal,3,30.750389,76.775988,Pole replaced
GRV-2025-00158,Waterlogging on main road in Sector 20,The footpath/road at Sector 20 Sector 28 Chowk has been damaged. Senior citizens are finding it difficult to walk.,Mobile App,SEC-20,Roads,Waterlogging on Road,P2-High,0.6,2025-09-10T11:49:18,2025-09-13T17:49:18,Resolved,3,MCC Engineering Department,Jagtar Singh,4,30.76198,76.775754,Speed breaker installed
GRV-2025-00159,Construction Noise issue in Sector 25,"A wedding venue near gurudwara, Sector 25 has been playing loud music daily for the past week.",Walk-in,SEC-25,Noise Pollution,Construction Noise,P3-Medium,0.34,2025-06-24T16:41:18,,Pending,,Chandigarh Police,ASI Gurpreet,,30.756835,76.788431,
GRV-2025-00160,Road surface cracked and uneven in Sector 21,The footpath/road at Sector 21 Sector 20 Chowk has been damaged. Senior citizens are finding it difficult to walk.,Walk-in,SEC-21,Roads,Cracked Road Surface,P1-Critical,0.93,2026-02-16T08:13:10,2026-02-19T10:13:10,Resolved,3,MCC Engineering Department,Er. Parveen Kumar,2,30.770295,76.783875,Repaired using hot-mix patching
GRV-2025-00161,No Water Supply issue in Sector 49,Residents of Sector 49 have been complaining about contaminated water for a week. Multiple neighbors have also complained.,Voice Call,SEC-49,Water Supply,No Water Supply,P4-Low,0.07,2025-06-03T10:08:33,2025-06-20T11:08:33,Resolved,17,MCC Public Health Department,Sandeep Verma,4,30.76883,76.766016,Water supply restored after valve repair
GRV-2025-00162,Waste Near Park issue in Sector 32,The area near Sector 32 market is littered with garbage every morning. Sweeper does not come regularly.,Mobile App,SEC-32,Garbage/Sanitation,Waste Near Park,P4-Low,0.19,2025-08-07T17:30:34,,Rejected,,MCC Public Health Department,Amarjit Kaur,,30.71817,76.747164,
GRV-2025-00163,No Light in Lane issue in Sector 24,There are no streetlights in the inner lane of Sector 24. Women feel unsafe walking there at night.,Mobile App,SEC-24,Streetlights,No Light in Lane,P3-Medium,0.54,2025-08-31T06:49:27,2025-09-12T16:49:27,Resolved,12,CPDL / Chandigarh Electricity Department,SDO Pankaj,4,30.743857,76.755086,Underground cable repaired
GRV-2025-00164,Stinky Garbage issue in Sector 28,No sweeping has been done in Sector 28 lane D for over a week. The area is filthy.,Voice Call,SEC-28,Garbage/Sanitation,Stinky Garbage,P4-Low,0.15,2025-12-13T14:18:41,,Escalated,,MCC Public Health Department,Sandeep Verma,,30.759434,76.804705,
GRV-2025-00165,Bull Running Loose issue in Sector 17,There are 2 stray dogs near the school in Sector 17. Children are terrified to enter.,Web Portal,SEC-17,Stray Animals,Bull Running Loose,P3-Medium,0.3,2025-03-28T06:11:06,2025-04-09T11:11:06,Resolved,12,Social Welfare Department Chandigarh,Preeti Sharma,4,30.758169,76.758625,Animals captured and vaccinated
GRV-2025-00166,Flickering Light issue in Sector 2,A streetlight pole near Sector 2 market has fallen due to wind. It is blocking the road and is dangerous.,Mobile App,SEC-02,Streetlights,Flickering Light,P3-Medium,0.51,2026-03-01T07:17:49,2026-03-16T09:17:49,Resolved,15,CPDL / Chandigarh Electricity Department,SDO Pankaj,3,30.715375,76.807323,New LED light installed
GRV-2025-00167,Burst Pipe issue in Manimajra,"Water pressure is very low in the lane near house 886, Manimajra. Overhead tanks are not getting filled.",Mobile App,MNJ,Water Supply,Burst Pipe,P4-Low,0.22,2025-04-23T12:30:24,2025-05-19T18:30:24,Resolved,26,MCC Public Health Department,Gurmail Singh,4,30.703375,76.814994,Pipeline repaired
GRV-2025-00168,Effluent in Park issue in Sector 12,The sewage smell from the drain near Sector 12 Phase A is affecting the entire neighborhood.,Mobile App,SEC-12,Sewerage,Effluent in Park,P2-High,0.71,2025-07-19T11:50:17,2025-07-24T13:50:17,Resolved,5,MCC Public Health Department,Raju Kumar,4,30.700714,76.743359,Drainage unblocked using jet machine
GRV-2025-00169,Wall Extension on Road issue in Sector 43,Illegal vendors near Sector 43 market have taken over the road. The lane is now only one vehicle wide.,Voice Call,SEC-43,Encroachment,Wall Extension on Road,P4-Low,0.11,2025-04-29T09:08:31,2025-05-20T15:08:31,Resolved,21,MCC Town Planning Department,Manpreet Singh,4,30.760536,76.804442,Action taken against violator
GRV-2025-00170,No Zebra Crossing issue in Sector 44,The traffic signal near sector chowk in Sector 44 has not been working for 8 days. Major congestion.,Voice Call,SEC-44,Traffic,No Zebra Crossing,P3-Medium,0.37,2025-11-23T12:36:11,2025-12-13T18:36:11,Resolved,20,Traffic Police Chandigarh,Const. Suresh Pal,4,30.722026,76.806508,Road markings redone
GRV-2025-00171,Effluent in Park issue in Sector 15,Open sewage water near Sector 15 mandir is a major hygiene and health hazard.,Mobile App,SEC-15,Sewerage,Effluent in Park,P2-High,0.7,2025-07-28T13:20:46,2025-07-30T00:20:46,Resolved,1,MCC Public Health Department,Gurmail Singh,4,30.71519,76.794658,Sewage overflow cleaned
GRV-2025-00172,Effluent in Park issue in Sector 15,"The drain near community centre, Sector 15 has not been cleaned for months. It is completely blocked.",Mobile App,SEC-15,Sewerage,Effluent in Park,P4-Low,0.05,2025-03-17T09:31:12,2025-03-30T10:31:12,Resolved,13,MCC Public Health Department,Amarjit Kaur,4,30.731088,76.779193,Sewage overflow cleaned
GRV-2025-00173,No Power Since Morning issue in Sector 44,There has been a power cut in Sector 44 since 5 days. No official information given.,Mobile App,SEC-44,Electricity,No Power Since Morning,P4-Low,0.14,2025-09-29T17:35:47,2025-11-01T23:35:47,Resolved,33,CPDL / Chandigarh Electricity Department,Er. Hardeep Kaur,2,30.749355,76.782322,Illegal connection removed
GRV-2025-00174,Severe road damage near market in Manimajra,The road in front of bus stop in Manimajra has a Road Damage. Vehicles are getting damaged. Immediate action required.,Mobile App,MNJ,Roads,Road Damage,P3-Medium,0.46,2025-09-09T11:35:47,,In Progress,,MCC Engineering Department,Jagtar Singh,,30.744651,76.799689,
GRV-2025-00175,Flyover structure showing damage in Sector 24,"Near house number 537 in Sector 24, the footpath is broken and vehicles are using it as a parking space.",Mobile App,SEC-24,Roads,Flyover Damage,P3-Medium,0.53,2025-09-05T16:54:23,,Escalated,,MCC Engineering Department,Er. Parveen Kumar,,30.732987,76.790659,
GRV-2025-00176,Waterlogging on main road in Sector 38,The main road in Sector 38 has developed multiple potholes near the drainage channel. Urgent repair needed.,WhatsApp,SEC-38,Roads,Waterlogging on Road,P3-Medium,0.3,2025-03-19T15:38:01,2025-04-07T18:38:01,Resolved,19,MCC Engineering Department,Er. Sukhwinder Kaur,1,30.778752,76.757186,Pothole filled with bitumen
GRV-2025-00177,Bin Not Emptied issue in Sector 3,The area near Sector 3 Phase B park has become an illegal garbage dump point. Multiple neighbors have also complained.,Walk-in,SEC-03,Garbage/Sanitation,Bin Not Emptied,P3-Medium,0.33,2025-06-20T13:14:16,,In Progress,,MCC Public Health Department,Raju Kumar,,30.764886,76.747352,
GRV-2025-00178,Road surface cracked and uneven in Sector 37,The road in front of mandir in Sector 37 has a Cracked Road Surface. Vehicles are getting damaged. Immediate action required.,WhatsApp,SEC-37,Roads,Cracked Road Surface,P3-Medium,0.48,2025-09-10T08:49:03,,Rejected,,MCC Engineering Department,Er. Sukhwinder Kaur,,30.77375,76.766751,
GRV-2025-00179,Traffic Jam issue in Sector 26,Heavy vehicles are using residential roads in Sector 26 despite signage. Noise and damage to roads.,Web Portal,SEC-26,Traffic,Traffic Jam,P3-Medium,0.43,2025-07-01T10:20:32,,Escalated,,Traffic Police Chandigarh,Insp. Daljit Singh,,30.755821,76.752256,
GRV-2025-00180,Illegal Tree Cutting issue in Sector 30,A tree branch fell near house 542 in Sector 30 and damaged my car. Please prune regularly.,Mobile App,SEC-30,Parks/Trees,Illegal Tree Cutting,P3-Medium,0.49,2025-09-27T14:05:25,,Rejected,,MCC Horticulture Department,Sukhdeep Kaur,,30.740146,76.801906,
GRV-2025-00181,Garbage Dumped on Road issue in Sector 48,Dead dog near Sector 48 Sector 34 Chowk has not been removed for 5 days. Spreading disease risk.,Mobile App,SEC-48,Garbage/Sanitation,Garbage Dumped on Road,P4-Low,0.08,2025-07-07T08:07:42,,In Progress,,MCC Public Health Department,Paramjit Kaur,,30.733087,76.769221,
GRV-2025-00182,Sewer Line Burst issue in Sector 22,"The drain outside house 771, Sector 22 has been blocked for 2 days causing stagnant water.",Voice Call,SEC-22,Sewerage,Sewer Line Burst,P2-High,0.56,2025-12-15T12:43:23,,Pending,,MCC Public Health Department,Raju Kumar,,30.712479,76.798279,
GRV-2025-00183,Choked Drain issue in Sector 12,Sewer line has burst in lane C of Sector 12. Sewage water is entering homes.,Walk-in,SEC-12,Sewerage,Choked Drain,P3-Medium,0.42,2025-07-21T12:13:34,2025-08-09T17:13:34,Resolved,19,MCC Public Health Department,Gurmail Singh,3,30.758394,76.751308,Sewage overflow cleaned
GRV-2025-00184,Unauthorized Construction issue in Sector 25,The balcony of house 274 in Sector 25 is extended onto the footpath. Blocking pedestrians.,WhatsApp,SEC-25,Building Violation,Unauthorized Construction,P4-Low,0.2,2025-11-10T17:55:06,2025-11-18T22:55:06,Resolved,8,MCC Town Planning Department,Gurpreet Sandhu,3,30.730456,76.818129,Action taken under Punjab Municipal Act
GRV-2025-00185,Frequent Tripping issue in Sector 22,The electricity bill for Sector 22 house 644 is 3x higher than usual this month with no change in usage.,Web Portal,SEC-22,Electricity,Frequent Tripping,P3-Medium,0.53,2025-06-12T21:25:47,2025-06-20T22:25:47,Resolved,8,CPDL / Chandigarh Electricity Department,SDO Pankaj,4,30.72843,76.764186,Cable repaired
GRV-2025-00186,Road signage missing at junction in Sector 21,"Near house number 363 in Sector 21, the footpath is broken and vehicles are using it as a parking space.",Web Portal,SEC-21,Roads,Road Signage Missing,P3-Medium,0.32,2025-08-01T13:26:15,2025-08-22T16:26:15,Resolved,21,MCC Engineering Department,Er. Harpreet Singh,5,30.772779,76.766343,Footpath relaid
GRV-2025-00187,New Connection Delay issue in Sector 13,The water supply in Sector 13 Phase B area is completely disrupted. Over 6 families are affected.,WhatsApp,SEC-13,Water Supply,New Connection Delay,P4-Low,0.2,2025-07-26T11:20:04,,Escalated,,MCC Public Health Department,Paramjit Kaur,,30.744587,76.815888,
GRV-2025-00188,Illegal Extension issue in Sector 16,The basement of a commercial property in Sector 16 market is being used as a godown illegally.,Web Portal,SEC-16,Building Violation,Illegal Extension,P2-High,0.74,2025-04-11T11:01:48,,In Progress,,MCC Town Planning Department,Rajdeep Kaur,,30.778876,76.789356,
GRV-2025-00189,Water Logging issue in Sector 37,"A major pipeline has burst near community centre in Sector 37, causing water wastage and road damage.",Mobile App,SEC-37,Water Supply,Water Logging,P3-Medium,0.51,2025-07-08T17:11:54,,Rejected,,MCC Public Health Department,Amarjit Kaur,,30.730997,76.777908,
GRV-2025-00190,Open Manhole issue in Sector 17,"The sewer is overflowing near house 518, Sector 17. Dirty water is spreading on the road.",Web Portal,SEC-17,Sewerage,Open Manhole,P3-Medium,0.34,2026-02-24T20:55:39,2026-03-15T08:55:39,Resolved,18,MCC Public Health Department,Paramjit Kaur,5,30.771007,76.774204,Manhole cover placed
GRV-2025-00191,Stray Dog Menace issue in Sector 38,Monkeys have been entering homes in Sector 38 and destroying property. This has been reported before but no action was taken.,Mobile App,SEC-38,Stray Animals,Stray Dog Menace,P4-Low,0.26,2025-07-17T18:47:02,,Rejected,,Social Welfare Department Chandigarh,Jagjit Singh,,30.744616,76.78129,
GRV-2025-00192,Missed Garbage Collection issue in Sector 17,Dead dog near Sector 17 Sector 28 Chowk has not been removed for 6 days. Spreading disease risk.,Mobile App,SEC-17,Garbage/Sanitation,Missed Garbage Collection,P4-Low,0.27,2025-07-16T20:05:46,,In Progress,,MCC Public Health Department,Raju Kumar,,30.740053,76.754382,
GRV-2025-00193,Light Post Fallen issue in Dhanas,"Due to underground cable fault, the entire Dhanas Phase B stretch has no lights.",Walk-in,DHN,Streetlights,Light Post Fallen,P3-Medium,0.36,2025-11-21T11:45:46,,Pending,,CPDL / Chandigarh Electricity Department,Rajesh Pal,,30.709884,76.749133,
GRV-2025-00194,Path Broken in Park issue in Sector 40,The park in Sector 40 Phase B has not been cleaned or maintained for weeks. Overgrown grass.,Voice Call,SEC-40,Parks/Trees,Path Broken in Park,P2-High,0.78,2025-10-04T10:10:55,2025-10-06T13:10:55,Resolved,2,MCC Horticulture Department,Jasveer Singh,2,30.724645,76.798413,Water supply restored in park
GRV-2025-00195,Meter Reading Error issue in Sector 21,"Water pressure is very low in the lane near house 234, Sector 21. Overhead tanks are not getting filled.",Web Portal,SEC-21,Water Supply,Meter Reading Error,P3-Medium,0.5,2025-08-09T21:15:13,,Rejected,,MCC Public Health Department,Paramjit Kaur,,30.747109,76.778057,
GRV-2025-00196,Illegal Dumping issue in Sector 29,Waste from the nearby shop is regularly dumped outside house 714 in Sector 29. Please take action.,WhatsApp,SEC-29,Garbage/Sanitation,Illegal Dumping,P3-Medium,0.34,2025-10-04T07:09:54,2025-10-08T18:09:54,Resolved,4,MCC Public Health Department,Gurmail Singh,4,30.723875,76.813631,Area sanitized
GRV-2025-00197,Large pothole causing accidents in Sector 12,"Since past 12 days, a Pothole has been causing accidents in Sector 12 near mandir. Two-wheelers are at risk.",Web Portal,SEC-12,Roads,Pothole,P1-Critical,0.95,2025-07-19T18:52:04,2025-07-23T03:52:04,Resolved,3,MCC Engineering Department,Er. Parveen Kumar,3,30.710764,76.79557,Repaired using hot-mix patching
GRV-2025-00198,Speed breaker missing near school in Sector 23,"After the last rain, the Speed Breaker Missing near community centre in Sector 23 has worsened. Multiple vehicles have been damaged.",Email,SEC-23,Roads,Speed Breaker Missing,P4-Low,0.28,2026-03-12T15:27:38,,In Progress,,MCC Engineering Department,Er. Balvinder Singh,,30.767824,76.760773,
GRV-2025-00199,Drain Needs Cleaning issue in Sector 40,The manhole near Sector 40 market is open and is a serious danger to pedestrians and children.,Mobile App,SEC-40,Sewerage,Drain Needs Cleaning,P4-Low,0.29,2025-03-01T06:29:40,2025-03-15T18:29:40,Resolved,14,MCC Public Health Department,Raju Kumar,4,30.779919,76.773123,Sewer line repaired
GRV-2025-00200,Meter Tampered issue in Sector 23,There has been a power cut in Sector 23 since 5 days. No official information given.,Web Portal,SEC-23,Electricity,Meter Tampered,P4-Low,0.16,2025-11-29T09:43:21,,Rejected,,CPDL / Chandigarh Electricity Department,Rajesh Pal,,30.727309,76.797952,
GRV-2025-00201,Dead Animal Not Removed issue in Sector 4,No sweeping has been done in Sector 4 lane D for over a week. The area is filthy.,Web Portal,SEC-04,Garbage/Sanitation,Dead Animal Not Removed,P3-Medium,0.46,2026-01-27T16:29:50,,Rejected,,MCC Public Health Department,Paramjit Kaur,,30.765133,76.814223,
GRV-2025-00202,Missed Garbage Collection issue in Manimajra,The area near Manimajra market is littered with garbage every morning. Sweeper does not come regularly.,Web Portal,MNJ,Garbage/Sanitation,Missed Garbage Collection,P2-High,0.79,2025-05-28T06:21:24,2025-06-03T15:21:24,Resolved,6,MCC Public Health Department,Amarjit Kaur,4,30.731165,76.787615,Dustbin replaced
GRV-2025-00203,Building on Green Belt issue in Sector 44,A shop owner near Sector 44 market has encroached upon the public footpath. Pedestrians have no space to walk.,Voice Call,SEC-44,Encroachment,Building on Green Belt,P3-Medium,0.38,2025-04-13T07:49:12,2025-04-18T15:49:12,Resolved,5,MCC Town Planning Department,Rajdeep Kaur,1,30.738613,76.780004,Action taken against violator
GRV-2025-00204,Malaria Risk Area issue in Sector 23,Rat menace has increased in Sector 23 near rose garden. Garbage and blocked drains are the reason.,Web Portal,SEC-23,Mosquito/Vector,Malaria Risk Area,P3-Medium,0.41,2025-10-12T22:07:00,,Pending,,Health Department / NHM Chandigarh,Sanjeev Kumar,,30.724879,76.743522,
GRV-2025-00205,Dead Animal Not Removed issue in IT Park,"A large garbage dump has appeared near main market, IT Park. Dogs and stray animals are digging through it.",Mobile App,ITP,Garbage/Sanitation,Dead Animal Not Removed,P3-Medium,0.35,2025-05-30T16:49:28,2025-06-05T21:49:28,Resolved,6,MCC Public Health Department,Gurmail Singh,3,30.709157,76.816664,Dustbin replaced
GRV-2025-00206,Rat Menace issue in Sector 35,Standing water in the park of Sector 35 is causing mosquito breeding. Dengue fear in the area.,Mobile App,SEC-35,Mosquito/Vector,Rat Menace,P3-Medium,0.32,2025-09-19T16:34:28,,Rejected,,Health Department / NHM Chandigarh,Dr. Gurinder Singh,,30.704058,76.742319,
GRV-2025-00207,No Water Supply issue in Sector 12,There is no water supply in Sector 12 since 8 days. Residents are facing severe hardship.,Web Portal,SEC-12,Water Supply,No Water Supply,P2-High,0.73,2025-09-14T08:59:48,,Rejected,,MCC Public Health Department,Sandeep Verma,,30.761154,76.785423,
GRV-2025-00208,Severe road damage near market in Sector 55,The road in front of dispensary in Sector 55 has a Road Damage. Vehicles are getting damaged. Immediate action required.,Mobile App,SEC-55,Roads,Road Damage,P4-Low,0.08,2025-07-28T11:44:58,,Pending,,MCC Engineering Department,Er. Parveen Kumar,,30.753214,76.803102,
GRV-2025-00209,Sewage on Road issue in Sector 31,"The sewer is overflowing near house 166, Sector 31. Dirty water is spreading on the road.",Voice Call,SEC-31,Sewerage,Sewage on Road,P4-Low,0.18,2025-05-06T09:25:52,2025-05-19T15:25:52,Resolved,13,MCC Public Health Department,Sandeep Verma,4,30.763394,76.78262,Sewage overflow cleaned
GRV-2025-00210,Burst Pipe issue in Sector 38,"A major pipeline has burst near gurudwara in Sector 38, causing water wastage and road damage.",Web Portal,SEC-38,Water Supply,Burst Pipe,P3-Medium,0.41,2026-03-08T16:34:44,,Rejected,,MCC Public Health Department,Sandeep Verma,,30.718892,76.793009,
GRV-2025-00211,Dog Bite issue in Sector 45,Stray cattle are roaming on the main road of Sector 45 and are causing accidents.,Mobile App,SEC-45,Stray Animals,Dog Bite,P3-Medium,0.32,2025-05-01T18:20:31,2025-05-05T20:20:31,Resolved,4,Social Welfare Department Chandigarh,Jagjit Singh,4,30.770981,76.81226,Animals captured and vaccinated
GRV-2025-00212,Footpath Blocked issue in Sector 47,The sidewalk near Sector 47 bus stop is encroached by 6 unauthorized vendors. Commuters are affected.,Web Portal,SEC-47,Encroachment,Footpath Blocked,P4-Low,0.2,2025-06-30T15:58:59,2025-08-04T03:58:59,Resolved,34,MCC Town Planning Department,Manpreet Singh,5,30.746618,76.788919,Area demarcated and cleared
GRV-2025-00213,Industrial Machine Noise issue in Sector 26,Firecrackers are being burst in Sector 26 every night despite the ban. Action needed.,Mobile App,SEC-26,Noise Pollution,Industrial Machine Noise,P3-Medium,0.52,2025-06-28T18:40:20,2025-07-14T01:40:20,Resolved,15,Chandigarh Police,HC Jaswinder Kumar,3,30.716897,76.753873,DJs served notice
GRV-2025-00214,Garbage Dumped on Road issue in Sector 17,The garbage truck makes very early trips and misses many households in Sector 17. Waste collection is irregular.,Mobile App,SEC-17,Garbage/Sanitation,Garbage Dumped on Road,P4-Low,0.02,2025-03-08T21:42:27,,In Progress,,MCC Public Health Department,Amarjit Kaur,,30.777998,76.750862,
GRV-2025-00215,No Fogging issue in Sector 41,Chikungunya cases suspected in Sector 41 lane D. Vector control team should visit.,Voice Call,SEC-41,Mosquito/Vector,No Fogging,P4-Low,0.11,2025-06-13T06:36:31,2025-07-05T18:36:31,Resolved,22,Health Department / NHM Chandigarh,Sanjeev Kumar,3,30.774125,76.786108,Awareness campaign held
GRV-2025-00216,Footpath Blocked issue in Sector 5,Illegal vendors near Sector 5 market have taken over the road. The lane is now only one vehicle wide.,Voice Call,SEC-05,Encroachment,Footpath Blocked,P4-Low,0.02,2026-02-05T08:15:30,,Rejected,,MCC Town Planning Department,Vikram Sood,,30.750453,76.793099,
GRV-2025-00217,Overflowing Dustbin issue in Sector 43,Waste from the nearby shop is regularly dumped outside house 419 in Sector 43. Please take action.,Voice Call,SEC-43,Garbage/Sanitation,Overflowing Dustbin,P4-Low,0.11,2026-03-09T15:18:10,,In Progress,,MCC Public Health Department,Amarjit Kaur,,30.702826,76.813829,
GRV-2025-00218,Firecrackers issue in Sector 44,A DJ is playing loud music at the farmhouse near Sector 44 every night past midnight. Sleep impossible.,Mobile App,SEC-44,Noise Pollution,Firecrackers,P4-Low,0.02,2025-10-22T14:16:08,2025-11-15T19:16:08,Resolved,24,Chandigarh Police,ASI Gurpreet,1,30.708924,76.753969,Complaint registered
GRV-2025-00219,Traffic Noise at Night issue in Sector 45,Vendors in Sector 45 use loudspeakers to advertise from 7 AM creating nuisance.,Mobile App,SEC-45,Noise Pollution,Traffic Noise at Night,P4-Low,0.24,2026-01-20T16:05:09,2026-03-06T19:05:09,Resolved,45,Chandigarh Police,HC Jaswinder Kumar,4,30.733036,76.770653,DJs served notice
GRV-2025-00220,Missing manhole cover on road in Sector 44,Missing Manhole Cover has developed near the main market of Sector 44. It is creating problems for daily commuters and shopkeepers.,Voice Call,SEC-44,Roads,Missing Manhole Cover,P4-Low,0.14,2025-08-20T21:47:48,2025-10-01T01:47:48,Resolved,41,MCC Engineering Department,Er. Sukhwinder Kaur,4,30.731206,76.76101,Footpath relaid
GRV-2025-00221,Stinky Garbage issue in IT Park,The garbage collection vehicle has not come to IT Park for 14 days. Waste is piling up at the corner.,Voice Call,ITP,Garbage/Sanitation,Stinky Garbage,P2-High,0.71,2026-02-26T19:39:58,,Escalated,,MCC Public Health Department,Sandeep Verma,,30.752165,76.761807,
GRV-2025-00222,Balcony Encroachment issue in Sector 21,The balcony of house 770 in Sector 21 is extended onto the footpath. Blocking pedestrians.,Web Portal,SEC-21,Building Violation,Balcony Encroachment,P3-Medium,0.38,2025-03-05T06:53:04,2025-03-08T13:53:04,Resolved,3,MCC Town Planning Department,Gurpreet Sandhu,4,30.75484,76.768121,Demolition notice served
GRV-2025-00223,Speed breaker missing near school in Sector 20,"There is a large Speed Breaker Missing near house no. 124, Sector 20. This has been reported before but no action was taken. Please repair urgently.",WhatsApp,SEC-20,Roads,Speed Breaker Missing,P4-Low,0.26,2025-05-07T11:57:07,,Rejected,,MCC Engineering Department,Er. Sukhwinder Kaur,,30.755652,76.760267,
GRV-2025-00224,Monkey Menace issue in Sector 43,Donkeys abandoned near Sector 43 Phase C are blocking the lane and eating household garbage.,Voice Call,SEC-43,Stray Animals,Monkey Menace,P2-High,0.65,2025-09-04T07:16:52,2025-09-07T10:16:52,Resolved,3,Social Welfare Department Chandigarh,Preeti Sharma,2,30.778354,76.756054,Anti-rabies drive conducted
GRV-2025-00225,Burst Pipe issue in Sector 15,"Water pressure is very low in the lane near house 247, Sector 15. Overhead tanks are not getting filled.",Voice Call,SEC-15,Water Supply,Burst Pipe,P3-Medium,0.33,2025-04-11T14:49:28,,Pending,,MCC Public Health Department,Sandeep Verma,,30.701501,76.779816,
GRV-2025-00226,Dirty Toilet issue in Sector 5,The toilet seat and flush in the public toilet near Sector 5 Sector 37 Chowk are completely broken.,Mobile App,SEC-05,Public Toilet,Dirty Toilet,P3-Medium,0.4,2025-12-05T08:34:14,2025-12-08T15:34:14,Resolved,3,MCC Public Health Department,Sandeep Verma,4,30.738565,76.78538,Toilet reopened after repair
GRV-2025-00227,Waterlogging on main road in Sector 23,"After the last rain, the Waterlogging on Road near bus stop in Sector 23 has worsened. Multiple vehicles have been damaged.",Web Portal,SEC-23,Roads,Waterlogging on Road,P3-Medium,0.49,2025-07-12T12:11:35,,In Progress,,MCC Engineering Department,Jagtar Singh,,30.703146,76.770733,
GRV-2025-00228,Damaged Pole issue in Sector 22,All lights on the road near sector chowk in Sector 22 are off. Robberies have increased due to darkness.,Voice Call,SEC-22,Streetlights,Damaged Pole,P1-Critical,0.81,2025-03-10T13:31:24,2025-03-10T22:31:24,Resolved,0,CPDL / Chandigarh Electricity Department,SDO Pankaj,3,30.742715,76.80674,Electrical fault rectified
GRV-2025-00229,Sewage Smell issue in Sector 3,Sewage water is flowing onto the main road of Sector 3 due to overflowing drains. Vehicles are splashing it.,Web Portal,SEC-03,Sewerage,Sewage Smell,P3-Medium,0.36,2025-04-07T10:31:41,,Pending,,MCC Public Health Department,Gurmail Singh,,30.701525,76.812574,
GRV-2025-00230,No Drinking Water in Park issue in Sector 6,The Sector 6 sector park is being used for illegal gatherings at night. Security needed.,Mobile App,SEC-06,Parks/Trees,No Drinking Water in Park,P2-High,0.59,2025-10-13T09:07:31,2025-10-18T19:07:31,Resolved,5,MCC Horticulture Department,Bhupinder Singh,2,30.716211,76.766987,Park equipment repaired
GRV-2025-00231,Extra Floor Built issue in Sector 22,Neighbours have built a wall encroaching on our shared driveway in Sector 22. Dispute going on for 10 days.,Mobile App,SEC-22,Building Violation,Extra Floor Built,P2-High,0.58,2025-04-24T19:10:44,,Escalated,,MCC Town Planning Department,Gurpreet Sandhu,,30.729594,76.7532,
GRV-2025-00232,Transformer Fault issue in Sector 38,Low voltage in Sector 38 is causing issues. Fans and fridges are not working properly.,Voice Call,SEC-38,Electricity,Transformer Fault,P4-Low,0.0,2025-05-13T08:45:41,2025-06-26T13:45:41,Resolved,44,CPDL / Chandigarh Electricity Department,Er. Gurmeet Pal,4,30.763379,76.778081,Voltage stabilized
GRV-2025-00233,Garbage Dumped on Road issue in Sector 17,No sanitation worker has been assigned to our lane in Sector 17 for 10 days despite repeated calls to the helpline.,Walk-in,SEC-17,Garbage/Sanitation,Garbage Dumped on Road,P4-Low,0.18,2025-04-07T15:22:26,2025-04-15T00:22:26,Resolved,7,MCC Public Health Department,Paramjit Kaur,3,30.778928,76.818143,Dustbin replaced
GRV-2025-00234,No Power Since Morning issue in Sector 24,Illegal connections taken from the pole near Sector 24 Phase C are overloading the supply.,Voice Call,SEC-24,Electricity,No Power Since Morning,P3-Medium,0.42,2025-05-08T07:03:41,,Pending,,CPDL / Chandigarh Electricity Department,Rajesh Pal,,30.729135,76.756767,
GRV-2025-00235,Dirty Water issue in Sector 23,The water supply pipe near Sector 23 sector park has been leaking for 3 days. A large amount of water is being wasted.,Email,SEC-23,Water Supply,Dirty Water,P4-Low,0.03,2026-01-19T20:37:37,,Pending,,MCC Public Health Department,Amarjit Kaur,,30.726078,76.7559,
GRV-2025-00236,Market Encroachment issue in Sector 18,Illegal vendors near Sector 18 market have taken over the road. The lane is now only one vehicle wide.,Web Portal,SEC-18,Encroachment,Market Encroachment,P3-Medium,0.45,2025-03-21T19:09:13,,In Progress,,MCC Town Planning Department,Gurpreet Sandhu,,30.774231,76.776399,
GRV-2025-00237,Burst Pipe issue in Sector 24,The water supply pipe near Sector 24 dispensary has been leaking for 5 days. A large amount of water is being wasted.,Email,SEC-24,Water Supply,Burst Pipe,P3-Medium,0.31,2025-05-06T20:29:26,2025-05-15T02:29:26,Resolved,8,MCC Public Health Department,Paramjit Kaur,5,30.748291,76.803164,Pipeline repaired
GRV-2025-00238,No Drinking Water in Park issue in Sector 15,The park in Sector 15 Phase B has not been cleaned or maintained for weeks. Overgrown grass.,Voice Call,SEC-15,Parks/Trees,No Drinking Water in Park,P3-Medium,0.48,2025-12-08T13:15:20,2025-12-24T23:15:20,Resolved,16,MCC Horticulture Department,Bhupinder Singh,5,30.747342,76.751918,Park equipment repaired
GRV-2025-00239,Drain Needs Cleaning issue in Dhanas,A manhole cover is missing near the school in Dhanas. Children are at risk of falling.,WhatsApp,DHN,Sewerage,Drain Needs Cleaning,P4-Low,0.14,2025-07-02T06:44:46,2025-08-04T10:44:46,Resolved,33,MCC Public Health Department,Gurmail Singh,3,30.719125,76.819916,Sewer line repaired
GRV-2025-00240,Missed Garbage Collection issue in Sector 34,People have started dumping garbage on the road near Sector 34 Phase A as there is no proper bin.,Web Portal,SEC-34,Garbage/Sanitation,Missed Garbage Collection,P4-Low,0.24,2025-06-21T20:45:40,2025-06-29T07:45:40,Resolved,7,MCC Public Health Department,Raju Kumar,3,30.75526,76.782474,Garbage collected and area cleaned
GRV-2025-00241,Parking Chaos issue in Sector 27,"Due to construction diversion in Sector 27, all traffic is on a narrow lane causing major delays.",Mobile App,SEC-27,Traffic,Parking Chaos,P2-High,0.79,2025-11-15T07:07:24,2025-11-18T15:07:24,Resolved,3,Traffic Police Chandigarh,ASI Manjit,1,30.729315,76.791854,Speed breaker installed
GRV-2025-00242,Severe road damage near market in Sector 37,"Since past 5 days, a Road Damage has been causing accidents in Sector 37 near primary school. Two-wheelers are at risk.",Voice Call,SEC-37,Roads,Road Damage,P4-Low,0.11,2025-07-08T19:17:03,,Pending,,MCC Engineering Department,Er. Sukhwinder Kaur,,30.70507,76.767618,
GRV-2025-00243,Meter Reading Error issue in Sector 35,"Water pressure is very low in the lane near house 581, Sector 35. Overhead tanks are not getting filled.",Web Portal,SEC-35,Water Supply,Meter Reading Error,P3-Medium,0.52,2025-07-06T08:25:57,2025-07-14T13:25:57,Resolved,8,MCC Public Health Department,Amarjit Kaur,2,30.722075,76.795767,Water supply restored after valve repair
GRV-2025-00244,Sewage Smell issue in Sector 15,Open sewage water near Sector 15 mandir is a major hygiene and health hazard.,Walk-in,SEC-15,Sewerage,Sewage Smell,P3-Medium,0.37,2025-04-02T13:53:33,2025-04-15T20:53:33,Resolved,13,MCC Public Health Department,Paramjit Kaur,3,30.751684,76.766105,Sewage overflow cleaned
GRV-2025-00245,Dead Animal Not Removed issue in Sector 43,The area near Sector 43 Phase B park has become an illegal garbage dump point. This is causing public inconvenience.,Mobile App,SEC-43,Garbage/Sanitation,Dead Animal Not Removed,P3-Medium,0.36,2025-06-22T15:49:54,,Rejected,,MCC Public Health Department,Amarjit Kaur,,30.703786,76.76825,
GRV-2025-00246,Sewage Smell issue in Sector 15,The manhole near Sector 15 market is open and is a serious danger to pedestrians and children.,Mobile App,SEC-15,Sewerage,Sewage Smell,P4-Low,0.04,2026-03-16T10:28:16,2026-03-20T18:00:00,Resolved,30,MCC Public Health Department,Amarjit Kaur,4,30.702775,76.765356,Sewer line repaired
GRV-2025-00247,Waterlogging on main road in Sector 15,The Waterlogging on Road near Sector 16 chowk has been unattended for 4 days. Please take immediate action.,Mobile App,SEC-15,Roads,Waterlogging on Road,P4-Low,0.28,2026-02-10T10:00:47,,In Progress,,MCC Engineering Department,Jagtar Singh,,30.743692,76.780593,
GRV-2025-00248,Balcony Encroachment issue in Sector 33,Construction work at Sector 33 house 782 started without any visible permit. This has been reported before but no action was taken.,WhatsApp,SEC-33,Building Violation,Balcony Encroachment,P3-Medium,0.33,2025-09-28T15:01:25,,Rejected,,MCC Town Planning Department,Rajdeep Kaur,,30.749402,76.757629,
GRV-2025-00249,Water Tanker Not Coming issue in Sector 11,There is no water supply in Sector 11 since 12 days. Residents are facing severe hardship.,Email,SEC-11,Water Supply,Water Tanker Not Coming,P2-High,0.57,2025-12-24T08:32:25,,Rejected,,MCC Public Health Department,Raju Kumar,,30.715556,76.765421,
GRV-2025-00250,Water Logging issue in Sector 35,The water supply in Sector 35 Phase C area is completely disrupted. Over 3 families are affected.,Voice Call,SEC-35,Water Supply,Water Logging,P3-Medium,0.39,2026-03-07T08:13:46,2026-03-20T18:00:00,Resolved,17,MCC Public Health Department,Gurmail Singh,4,30.723091,76.804454,Meter replaced
GRV-2025-00251,Illegal Dumping issue in Sector 44,People have started dumping garbage on the road near Sector 44 Phase B as there is no proper bin.,WhatsApp,SEC-44,Garbage/Sanitation,Illegal Dumping,P3-Medium,0.53,2025-09-03T18:05:00,,Pending,,MCC Public Health Department,Sandeep Verma,,30.732757,76.813153,
GRV-2025-00252,Billing Error issue in Sector 15,The electricity bill for Sector 15 house 873 is 3x higher than usual this month with no change in usage.,Mobile App,SEC-15,Electricity,Billing Error,P3-Medium,0.51,2025-06-11T20:14:01,2025-06-14T23:14:01,Resolved,3,CPDL / Chandigarh Electricity Department,SDO Pankaj,3,30.751244,76.790925,Cable repaired
GRV-2025-00253,No Water in Toilet issue in Sector 42,The public toilet near Sector 42 bus stop smells unbearable. No cleaning staff visible.,Mobile App,SEC-42,Public Toilet,No Water in Toilet,P2-High,0.7,2025-07-17T21:36:27,,In Progress,,MCC Public Health Department,Raju Kumar,,30.769468,76.79024,
GRV-2025-00254,No Anti-Larval Treatment issue in Sector 43,The drain near sector park in Sector 43 is a major mosquito breeding spot. Has not been cleaned.,Voice Call,SEC-43,Mosquito/Vector,No Anti-Larval Treatment,P4-Low,0.14,2025-10-07T17:10:03,2025-10-31T23:10:03,Resolved,24,Health Department / NHM Chandigarh,Dr. Gurinder Singh,4,30.776413,76.743897,Drainage cleared to prevent breeding
GRV-2025-00255,Grass Not Cut issue in Sector 36,The seating arrangement in Sector 36 park is damaged. Old people cannot sit and relax.,Mobile App,SEC-36,Parks/Trees,Grass Not Cut,P3-Medium,0.51,2025-11-19T15:17:43,,Escalated,,MCC Horticulture Department,Sukhdeep Kaur,,30.755837,76.769002,
GRV-2025-00256,New Connection Delay issue in Sector 38,The water coming from the tap in Sector 38 is muddy in color and has a foul smell. Not fit for drinking.,Voice Call,SEC-38,Water Supply,New Connection Delay,P3-Medium,0.33,2025-05-09T13:53:12,2025-05-29T23:53:12,Resolved,20,MCC Public Health Department,Raju Kumar,4,30.742052,76.782568,Connection restored
GRV-2025-00257,Stinky Garbage issue in Sector 44,The garbage truck makes very early trips and misses many households in Sector 44. Waste collection is irregular.,Mobile App,SEC-44,Garbage/Sanitation,Stinky Garbage,P3-Medium,0.5,2026-01-25T22:48:21,2026-02-03T10:48:21,Resolved,8,MCC Public Health Department,Gurmail Singh,1,30.765166,76.757789,Regular sweeping resumed
GRV-2025-00258,Factory Noise issue in Sector 43,Firecrackers are being burst in Sector 43 every night despite the ban. Action needed.,WhatsApp,SEC-43,Noise Pollution,Factory Noise,P4-Low,0.23,2025-12-24T07:12:06,,Escalated,,Chandigarh Police,HC Jaswinder Kumar,,30.702623,76.792783,
GRV-2025-00259,Water Logging issue in Sector 8,"Water pressure is very low in the lane near house 359, Sector 8. Overhead tanks are not getting filled.",Mobile App,SEC-08,Water Supply,Water Logging,P1-Critical,0.98,2025-05-15T17:01:05,,Pending,,MCC Public Health Department,Sandeep Verma,,30.711645,76.799696,
GRV-2025-00260,Litter Near Market issue in Sector 38,"A large garbage dump has appeared near bus stop, Sector 38. Dogs and stray animals are digging through it.",WhatsApp,SEC-38,Garbage/Sanitation,Litter Near Market,P1-Critical,0.95,2025-08-05T12:18:10,2025-08-06T00:18:10,Resolved,0,MCC Public Health Department,Raju Kumar,5,30.773638,76.808104,Garbage collected and area cleaned
GRV-2025-00261,Sewage Smell issue in Sector 24,The manhole near Sector 24 market is open and is a serious danger to pedestrians and children.,Voice Call,SEC-24,Sewerage,Sewage Smell,P4-Low,0.03,2026-03-11T09:29:07,2026-03-20T18:00:00,Resolved,40,MCC Public Health Department,Amarjit Kaur,4,30.756378,76.784571,Drainage unblocked using jet machine
GRV-2025-00262,Footpath Blocked issue in Sector 11,A private party has started construction on what appears to be a public park in Sector 11.,Mobile App,SEC-11,Encroachment,Footpath Blocked,P3-Medium,0.4,2026-03-14T19:12:54,,Pending,,MCC Town Planning Department,Rajdeep Kaur,,30.705569,76.807285,
GRV-2025-00263,Missing manhole cover on road in Sector 43,"Since past 12 days, a Missing Manhole Cover has been causing accidents in Sector 43 near mandir. Two-wheelers are at risk.",Voice Call,SEC-43,Roads,Missing Manhole Cover,P3-Medium,0.4,2025-10-11T09:47:59,2025-10-19T11:47:59,Resolved,8,MCC Engineering Department,Jagtar Singh,5,30.727091,76.787597,Pothole filled with bitumen
GRV-2025-00264,Illegal Dumping issue in Sector 12,The garbage truck makes very early trips and misses many households in Sector 12. Waste collection is irregular.,Web Portal,SEC-12,Garbage/Sanitation,Illegal Dumping,P2-High,0.72,2026-02-23T21:32:17,,Pending,,MCC Public Health Department,Paramjit Kaur,,30.71179,76.776371,
GRV-2025-00265,Severe road damage near market in Sector 20,The Road Damage near Sector 21 chowk has been unattended for 12 days. Please take immediate action.,Web Portal,SEC-20,Roads,Road Damage,P1-Critical,0.99,2025-08-01T16:09:19,2025-08-01T18:09:19,Resolved,0,MCC Engineering Department,Er. Parveen Kumar,4,30.761406,76.803419,Speed breaker installed
GRV-2025-00266,Congestion Near School issue in Sector 22,Rash driving by youngsters in Sector 22 Phase A at night is causing fear among residents.,Web Portal,SEC-22,Traffic,Congestion Near School,P3-Medium,0.41,2026-01-22T20:29:02,2026-01-26T23:29:02,Resolved,4,Traffic Police Chandigarh,Traffic SI Harjot,4,30.762351,76.810776,Speed breaker installed
GRV-2025-00267,Broken Equipment in Park issue in Sector 35,The swing and slide equipment in Sector 35 park are broken. Children are getting injured.,Mobile App,SEC-35,Parks/Trees,Broken Equipment in Park,P3-Medium,0.44,2025-04-30T07:25:16,2025-05-18T17:25:16,Resolved,18,MCC Horticulture Department,Manjit Kaur,4,30.728221,76.818223,Lights repaired
GRV-2025-00268,Stray Animals Near School issue in Sector 8,Residents of Sector 8 lane C are scared to step out at night due to aggressive stray dogs.,Mobile App,SEC-08,Stray Animals,Stray Animals Near School,P3-Medium,0.32,2025-09-11T17:26:22,,Escalated,,Social Welfare Department Chandigarh,Preeti Sharma,,30.704516,76.759538,
GRV-2025-00269,Parking on Footpath issue in Sector 41,"Extension of shop into public space near petrol pump, Sector 41 has been going on for months.",Mobile App,SEC-41,Encroachment,Parking on Footpath,P3-Medium,0.42,2026-01-26T22:57:26,,Pending,,MCC Town Planning Department,Rajdeep Kaur,,30.72133,76.795677,
GRV-2025-00270,Flyover structure showing damage in Sector 3,"After the last rain, the Flyover Damage near sukhna lake road in Sector 3 has worsened. Multiple vehicles have been damaged.",Mobile App,SEC-03,Roads,Flyover Damage,P3-Medium,0.42,2025-12-11T16:10:39,,Escalated,,MCC Engineering Department,Jagtar Singh,,30.723962,76.817554,
GRV-2025-00271,Sewer Line Burst issue in Sector 35,Open sewage water near Sector 35 post office is a major hygiene and health hazard.,Voice Call,SEC-35,Sewerage,Sewer Line Burst,P3-Medium,0.32,2025-07-22T08:36:51,2025-08-10T16:36:51,Resolved,19,MCC Public Health Department,Gurmail Singh,3,30.763652,76.792123,Drainage unblocked using jet machine
GRV-2025-00272,Dog Attack issue in Sector 35,Stray pigs are roaming near gurudwara in Sector 35 and creating a mess on the road.,Mobile App,SEC-35,Stray Animals,Dog Attack,P3-Medium,0.46,2025-11-19T11:36:31,2025-11-28T22:36:31,Resolved,9,Social Welfare Department Chandigarh,Anita Rani,3,30.751034,76.804715,Anti-rabies drive conducted
GRV-2025-00273,Burst Pipe issue in Sector 37,Residents of Sector 37 have been complaining about contaminated water for a week. Kindly look into this on priority.,Mobile App,SEC-37,Water Supply,Burst Pipe,P3-Medium,0.38,2025-12-13T08:40:13,,Pending,,MCC Public Health Department,Gurmail Singh,,30.767677,76.761355,
GRV-2025-00274,Dog Attack issue in Sector 41,A large group of stray dogs near Sector 41 market is attacking shoppers in the evening.,Web Portal,SEC-41,Stray Animals,Dog Attack,P3-Medium,0.5,2025-08-23T21:35:27,,Rejected,,Social Welfare Department Chandigarh,Baldev Singh,,30.733762,76.812452,
GRV-2025-00275,Road divider broken on main road in Sector 15,"Since past 6 days, a Road Divider Damaged has been causing accidents in Sector 15 near bank branch. Two-wheelers are at risk.",Voice Call,SEC-15,Roads,Road Divider Damaged,P3-Medium,0.31,2026-01-24T16:38:19,2026-01-29T23:38:19,Resolved,5,MCC Engineering Department,Jagtar Singh,4,30.770858,76.771752,Pothole filled with bitumen
GRV-2025-00276,Garbage Dumped on Road issue in Sector 19,Waste from the nearby shop is regularly dumped outside house 852 in Sector 19. Please take action.,Mobile App,SEC-19,Garbage/Sanitation,Garbage Dumped on Road,P4-Low,0.04,2025-12-16T16:53:37,2026-01-17T04:53:37,Resolved,31,MCC Public Health Department,Gurmail Singh,3,30.73383,76.751542,Warning issued to dumper
GRV-2025-00277,Garbage Dumped on Road issue in Sector 17,Dead dog near Sector 17 Sector 32 Chowk has not been removed for 6 days. Spreading disease risk.,Web Portal,SEC-17,Garbage/Sanitation,Garbage Dumped on Road,P3-Medium,0.44,2025-07-19T13:17:56,,Pending,,MCC Public Health Department,Raju Kumar,,30.762742,76.751593,
GRV-2025-00278,Waste Near Park issue in Sector 44,The area near Sector 44 market is littered with garbage every morning. Sweeper does not come regularly.,WhatsApp,SEC-44,Garbage/Sanitation,Waste Near Park,P3-Medium,0.4,2025-09-27T17:57:51,2025-10-04T02:57:51,Resolved,6,MCC Public Health Department,Raju Kumar,5,30.731078,76.812783,Dustbin replaced
GRV-2025-00279,Short Circuit Risk issue in Sector 20,All lights on the road near rose garden in Sector 20 are off. Robberies have increased due to darkness.,Mobile App,SEC-20,Streetlights,Short Circuit Risk,P4-Low,0.26,2025-12-20T19:50:02,2026-01-13T21:50:02,Resolved,24,CPDL / Chandigarh Electricity Department,Er. Hardeep Kaur,3,30.733037,76.807293,Timer corrected
GRV-2025-00280,Bull Running Loose issue in Timber Market,There are 6 stray dogs near the school in Timber Market. Children are terrified to enter.,Email,TMK,Stray Animals,Bull Running Loose,P2-High,0.74,2025-12-17T11:40:28,,Rejected,,Social Welfare Department Chandigarh,Preeti Sharma,,30.763282,76.750887,
GRV-2025-00281,Burst Pipe issue in Sector 17,"Our area Sector 17 gets water for only 20 minutes a day, which is not sufficient. Please look into this.",Mobile App,SEC-17,Water Supply,Burst Pipe,P3-Medium,0.41,2026-01-07T10:16:11,2026-01-28T16:16:11,Resolved,21,MCC Public Health Department,Raju Kumar,3,30.706752,76.769408,"Contamination addressed, chlorination done"
GRV-2025-00282,Burst Pipe issue in Timber Market,"There is no water connection in our newly allotted house at Timber Market. Applied 2 days ago, no action.",WhatsApp,TMK,Water Supply,Burst Pipe,P2-High,0.73,2025-05-12T18:39:27,,In Progress,,MCC Public Health Department,Sandeep Verma,,30.748031,76.75194,
GRV-2025-00283,Light On During Day issue in Sector 15,Streetlights in lane D of Sector 15 have not been working for 10 days. Area is completely dark at night.,Voice Call,SEC-15,Streetlights,Light On During Day,P3-Medium,0.37,2025-09-06T10:27:54,2025-09-15T20:27:54,Resolved,9,CPDL / Chandigarh Electricity Department,Er. Gurmeet Pal,5,30.722637,76.794175,Underground cable repaired
GRV-2025-00284,Road Occupied by Vendor issue in Sector 16,Residents of Sector 16 have parked vehicles permanently on the footpath in front of house 129.,WhatsApp,SEC-16,Encroachment,Road Occupied by Vendor,P2-High,0.55,2025-04-21T16:44:25,,Pending,,MCC Town Planning Department,Vikram Sood,,30.754948,76.797067,
GRV-2025-00285,Bull Running Loose issue in Sector 45,Stray cattle are roaming on the main road of Sector 45 and are causing accidents.,Web Portal,SEC-45,Stray Animals,Bull Running Loose,P4-Low,0.28,2026-03-01T07:00:16,,Rejected,,Social Welfare Department Chandigarh,Anita Rani,,30.740363,76.770475,
GRV-2025-00286,Bull Running Loose issue in Sector 43,There are 6 stray dogs near the school in Sector 43. Children are terrified to enter.,Voice Call,SEC-43,Stray Animals,Bull Running Loose,P3-Medium,0.33,2025-08-26T22:27:09,,Pending,,Social Welfare Department Chandigarh,Anita Rani,,30.720832,76.765062,
GRV-2025-00287,Illegal Stall issue in Sector 35,Illegal vendors near Sector 35 market have taken over the road. The lane is now only one vehicle wide.,Web Portal,SEC-35,Encroachment,Illegal Stall,P1-Critical,0.95,2025-09-05T10:35:54,2025-09-08T11:35:54,Resolved,3,MCC Town Planning Department,Rajdeep Kaur,2,30.718389,76.742869,Notice issued to occupant
GRV-2025-00288,Speed breaker missing near school in Sector 15,"After the last rain, the Speed Breaker Missing near primary school in Sector 15 has worsened. Multiple vehicles have been damaged.",Web Portal,SEC-15,Roads,Speed Breaker Missing,P3-Medium,0.33,2025-10-24T10:07:22,2025-10-29T14:07:22,Resolved,5,MCC Engineering Department,Er. Parveen Kumar,3,30.766796,76.799995,Drainage repaired alongside road
GRV-2025-00289,Litter Near Market issue in Sector 37,No sweeping has been done in Sector 37 lane E for over a week. The area is filthy.,WhatsApp,SEC-37,Garbage/Sanitation,Litter Near Market,P4-Low,0.2,2026-01-24T06:18:43,,Pending,,MCC Public Health Department,Amarjit Kaur,,30.778507,76.749759,
GRV-2025-00290,Bin Not Emptied issue in Sector 38,"A large garbage dump has appeared near mandir, Sector 38. Dogs and stray animals are digging through it.",Walk-in,SEC-38,Garbage/Sanitation,Bin Not Emptied,P3-Medium,0.54,2025-10-05T20:20:46,,In Progress,,MCC Public Health Department,Gurmail Singh,,30.779986,76.81255,
GRV-2025-00291,Flyover structure showing damage in Sector 13,"There is a large Flyover Damage near house no. 920, Sector 13. Kindly look into this on priority. Please repair urgently.",Web Portal,SEC-13,Roads,Flyover Damage,P2-High,0.61,2025-07-02T18:05:01,2025-07-09T22:05:01,Resolved,7,MCC Engineering Department,Er. Sukhwinder Kaur,3,30.732192,76.791773,Road resurfacing completed
GRV-2025-00292,"Broken footpath, risk to pedestrians in Sector 12",The Broken Footpath near Sector 13 chowk has been unattended for 8 days. Please take immediate action.,Mobile App,SEC-12,Roads,Broken Footpath,P4-Low,0.06,2025-08-14T18:30:17,2025-09-27T04:30:17,Resolved,43,MCC Engineering Department,Jagtar Singh,2,30.733803,76.769459,Footpath relaid
